{"type": "FeatureCollection", "features": [{"type": "Feature", "geometry": {"type": "Point", "coordinates": [-117.390549, 33.955623]}, "properties": {"placekey": "22b-222@5z4-m38-vxq", "brand": "The Habit Burger Grill", "top_category": "Restaurants and Other Eating Places", "sub_category": "Limited-Service Restaurants", "street_address": "3555 Riverside Plaza Dr", "city": "Riverside", "region": "CA", "postal_code": "92506", "total_visits": 1283, "avg_daily_visits": 183.3, "max_daily_visits": 242, "min_daily_visits": 87, "days_observed": 7}}, {"type": "Feature", "geometry": {"type": "Point", "coordinates": [-117.519, 33.891992]}, "properties": {"placekey": "zzw-222@5z4-rmx-w49", "brand": "WaBa Grill", "top_category": "Restaurants and Other Eating Places", "sub_category": "Limited-Service Restaurants", "street_address": "577 N McKinley St", "city": "Corona", "region": "CA", "postal_code": "92879", "total_visits": 690, "avg_daily_visits": 98.6, "max_daily_visits": 134, "min_daily_visits": 49, "days_observed": 7}}, {"type": "Feature", "geometry": {"type": "Point", "coordinates": [-117.514895, 33.883775]}, "properties": {"placekey": "zzy-222@5z4-m3y-ygk", "brand": "Little Caesars", "top_category": "Restaurants and Other Eating Places", "sub_category": "Limited-Service Restaurants", "street_address": "129 N McKinley St Ste 105", "city": "Corona", "region": "CA", "postal_code": "92879", "total_visits": 418, "avg_daily_visits": 59.7, "max_daily_visits": 73, "min_daily_visits": 36, "days_observed": 7}}, {"type": "Feature", "geometry": {"type": "Point", "coordinates": [-117.835358, 33.823823]}, "properties": {"placekey": "222-222@5z4-rx8-5mk", "brand": "Firehouse Subs", "top_category": "Restaurants and Other Eating Places", "sub_category": "Limited-Service Restaurants", "street_address": "2139 N Tustin St", "city": "Orange", "region": "CA", "postal_code": "92865", "total_visits": 1376, "avg_daily_visits": 196.6, "max_daily_visits": 272, "min_daily_visits": 113, "days_observed": 7}}, {"type": "Feature", "geometry": {"type": "Point", "coordinates": [-117.338769, 33.976069]}, "properties": {"placekey": "227-224@5z4-kgx-tsq", "brand": "The Burger Den", "top_category": "Restaurants and Other Eating Places", "sub_category": "Limited-Service Restaurants", "street_address": "1245 University Ave", "city": "Riverside", "region": "CA", "postal_code": "92507", "total_visits": 816, "avg_daily_visits": 116.6, "max_daily_visits": 165, "min_daily_visits": 55, "days_observed": 7}}, {"type": "Feature", "geometry": {"type": "Point", "coordinates": [-117.6513, 34.003358]}, "properties": {"placekey": "222-222@5z4-rjh-bp9", "brand": "Green Burrito", "top_category": "Restaurants and Other Eating Places", "sub_category": "Limited-Service Restaurants", "street_address": "7069 Schaefer Ave", "city": "Chino", "region": "CA", "postal_code": "91710", "total_visits": 79, "avg_daily_visits": 11.3, "max_daily_visits": 19, "min_daily_visits": 8, "days_observed": 7}}, {"type": "Feature", "geometry": {"type": "Point", "coordinates": [-117.837124, 33.699604]}, "properties": {"placekey": "zzy-223@5z4-rv2-73q", "brand": "Harbor Freight Tools", "top_category": "Building Material and Supplies Dealers", "sub_category": "Hardware Stores", "street_address": "2150 Barranca Pkwy", "city": "Irvine", "region": "CA", "postal_code": "92606", "total_visits": 1508, "avg_daily_visits": 215.4, "max_daily_visits": 260, "min_daily_visits": 134, "days_observed": 7}}, {"type": "Feature", "geometry": {"type": "Point", "coordinates": [-117.792289, 33.850139]}, "properties": {"placekey": "22r-222@5z4-rcp-dvz", "brand": "Pick Up Stix", "top_category": "Restaurants and Other Eating Places", "sub_category": "Limited-Service Restaurants", "street_address": "5576 E Santa Ana Canyon Rd", "city": "Anaheim", "region": "CA", "postal_code": "92807", "total_visits": 1749, "avg_daily_visits": 249.9, "max_daily_visits": 285, "min_daily_visits": 154, "days_observed": 7}}, {"type": "Feature", "geometry": {"type": "Point", "coordinates": [-117.666514, 33.677295]}, "properties": {"placekey": "222-223@5z4-rvj-ukf", "brand": "Chipotle Mexican Grill", "top_category": "Restaurants and Other Eating Places", "sub_category": "Limited-Service Restaurants", "street_address": "26592 Towne Centre Dr Ste 120", "city": "Lake Forest", "region": "CA", "postal_code": "92610", "total_visits": 553, "avg_daily_visits": 79.0, "max_daily_visits": 103, "min_daily_visits": 57, "days_observed": 7}}, {"type": "Feature", "geometry": {"type": "Point", "coordinates": [-118.09056, 34.003289]}, "properties": {"placekey": "zzw-225@5z5-3jr-ct9", "brand": "Domino's Pizza", "top_category": "Restaurants and Other Eating Places", "sub_category": "Limited-Service Restaurants", "street_address": "8522 Whittier Blvd", "city": "Pico Rivera", "region": "CA", "postal_code": "90660", "total_visits": 503, "avg_daily_visits": 71.9, "max_daily_visits": 104, "min_daily_visits": 39, "days_observed": 7}}, {"type": "Feature", "geometry": {"type": "Point", "coordinates": [-117.959383, 33.818203]}, "properties": {"placekey": "zzw-223@5z4-rx2-vs5", "brand": "Jack in the Box", "top_category": "Restaurants and Other Eating Places", "sub_category": "Limited-Service Restaurants", "street_address": "999 S Brookhurst St", "city": "Anaheim", "region": "CA", "postal_code": "92804", "total_visits": 1118, "avg_daily_visits": 159.7, "max_daily_visits": 194, "min_daily_visits": 122, "days_observed": 7}}, {"type": "Feature", "geometry": {"type": "Point", "coordinates": [-118.463284, 34.405128]}, "properties": {"placekey": "zzw-227@5z4-vq9-tjv", "brand": "L&L Hawaiian Barbecue", "top_category": "Restaurants and Other Eating Places", "sub_category": "Limited-Service Restaurants", "street_address": "18727 Via Princessa", "city": "Santa Clarita", "region": "CA", "postal_code": "91387", "total_visits": 398, "avg_daily_visits": 56.9, "max_daily_visits": 76, "min_daily_visits": 20, "days_observed": 7}}, {"type": "Feature", "geometry": {"type": "Point", "coordinates": [-118.238176, 34.035276]}, "properties": {"placekey": "222-222@5z5-3rs-rtv", "brand": "McDonald's", "top_category": "Restaurants and Other Eating Places", "sub_category": "Limited-Service Restaurants", "street_address": "690 S Alameda St", "city": "Los Angeles", "region": "CA", "postal_code": "90021", "total_visits": 398, "avg_daily_visits": 56.9, "max_daily_visits": 65, "min_daily_visits": 49, "days_observed": 7}}, {"type": "Feature", "geometry": {"type": "Point", "coordinates": [-117.682929, 33.635927]}, "properties": {"placekey": "223-222@5z4-qhj-5zz", "brand": "Pizza Hut", "top_category": "Restaurants and Other Eating Places", "sub_category": "Limited-Service Restaurants", "street_address": "22481 El Toro Rd Ste A", "city": "Lake Forest", "region": "CA", "postal_code": "92630", "total_visits": 304, "avg_daily_visits": 43.4, "max_daily_visits": 60, "min_daily_visits": 29, "days_observed": 7}}, {"type": "Feature", "geometry": {"type": "Point", "coordinates": [-118.352251, 33.926603]}, "properties": {"placekey": "zzy-222@5z6-3rw-mx5", "brand": "Little Caesars", "top_category": "Restaurants and Other Eating Places", "sub_category": "Limited-Service Restaurants", "street_address": "11836 Hawthorne Blvd", "city": "Hawthorne", "region": "CA", "postal_code": "90250", "total_visits": 198, "avg_daily_visits": 28.3, "max_daily_visits": 40, "min_daily_visits": 13, "days_observed": 7}}, {"type": "Feature", "geometry": {"type": "Point", "coordinates": [-117.498219, 34.039164]}, "properties": {"placekey": "224-229@5z4-km9-g6k", "brand": "Little Caesars", "top_category": "Restaurants and Other Eating Places", "sub_category": "Limited-Service Restaurants", "street_address": "14050 Cherry Ave Ste T", "city": "Fontana", "region": "CA", "postal_code": "92337", "total_visits": 253, "avg_daily_visits": 36.1, "max_daily_visits": 44, "min_daily_visits": 25, "days_observed": 7}}, {"type": "Feature", "geometry": {"type": "Point", "coordinates": [-117.919967, 33.766833]}, "properties": {"placekey": "223-222@5z4-rwh-2rk", "brand": "Yoshinoya", "top_category": "Restaurants and Other Eating Places", "sub_category": "Limited-Service Restaurants", "street_address": "13512 Harbor Blvd", "city": "Garden Grove", "region": "CA", "postal_code": "92843", "total_visits": 324, "avg_daily_visits": 46.3, "max_daily_visits": 57, "min_daily_visits": 35, "days_observed": 7}}, {"type": "Feature", "geometry": {"type": "Point", "coordinates": [-117.771384, 33.689255]}, "properties": {"placekey": "222-224@5z4-rs6-649", "brand": "KFC", "top_category": "Restaurants and Other Eating Places", "sub_category": "Limited-Service Restaurants", "street_address": "14705 Jeffrey Rd", "city": "Irvine", "region": "CA", "postal_code": "92618", "total_visits": 436, "avg_daily_visits": 62.3, "max_daily_visits": 75, "min_daily_visits": 42, "days_observed": 7}}, {"type": "Feature", "geometry": {"type": "Point", "coordinates": [-118.184725, 33.822296]}, "properties": {"placekey": "226-222@5z6-3cg-j5f", "brand": "Arby's", "top_category": "Restaurants and Other Eating Places", "sub_category": "Limited-Service Restaurants", "street_address": "3602 Atlantic Ave", "city": "Long Beach", "region": "CA", "postal_code": "90807", "total_visits": 63, "avg_daily_visits": 9.0, "max_daily_visits": 12, "min_daily_visits": 6, "days_observed": 7}}, {"type": "Feature", "geometry": {"type": "Point", "coordinates": [-117.714603, 34.01863]}, "properties": {"placekey": "224-223@5z4-rr6-f9f", "brand": "Subway", "top_category": "Restaurants and Other Eating Places", "sub_category": "Limited-Service Restaurants", "street_address": "4143 Riverside Dr Ste A", "city": "Chino", "region": "CA", "postal_code": "91710", "total_visits": 164, "avg_daily_visits": 23.4, "max_daily_visits": 44, "min_daily_visits": 10, "days_observed": 7}}, {"type": "Feature", "geometry": {"type": "Point", "coordinates": [-117.244335, 33.9394]}, "properties": {"placekey": "223-222@5z4-kdy-sbk", "brand": "Jack in the Box", "top_category": "Restaurants and Other Eating Places", "sub_category": "Limited-Service Restaurants", "street_address": "12477 Heacock St", "city": "Moreno Valley", "region": "CA", "postal_code": "92553", "total_visits": 256, "avg_daily_visits": 36.6, "max_daily_visits": 63, "min_daily_visits": 19, "days_observed": 7}}, {"type": "Feature", "geometry": {"type": "Point", "coordinates": [-118.371942, 34.022869]}, "properties": {"placekey": "228-225@5z4-zvn-435", "brand": "Subway", "top_category": "Restaurants and Other Eating Places", "sub_category": "Limited-Service Restaurants", "street_address": "3560 S La Cienega Blvd Ste C", "city": "Los Angeles", "region": "CA", "postal_code": "90016", "total_visits": 94, "avg_daily_visits": 13.4, "max_daily_visits": 18, "min_daily_visits": 9, "days_observed": 7}}, {"type": "Feature", "geometry": {"type": "Point", "coordinates": [-117.398186, 34.106421]}, "properties": {"placekey": "222-224@5z4-kkf-dgk", "brand": "The Meltdown", "top_category": "Restaurants and Other Eating Places", "sub_category": "Limited-Service Restaurants", "street_address": "1377 W Foothill Blvd", "city": "Rialto", "region": "CA", "postal_code": "92376", "total_visits": 269, "avg_daily_visits": 38.4, "max_daily_visits": 53, "min_daily_visits": 29, "days_observed": 7}}, {"type": "Feature", "geometry": {"type": "Point", "coordinates": [-118.557042, 34.273957]}, "properties": {"placekey": "22h-222@5z4-zhg-dsq", "brand": "Ameci Pizza and Pasta", "top_category": "Restaurants and Other Eating Places", "sub_category": "Limited-Service Restaurants", "street_address": "11229 Tampa Ave", "city": "Porter Ranch", "region": "CA", "postal_code": "91326", "total_visits": 385, "avg_daily_visits": 55.0, "max_daily_visits": 80, "min_daily_visits": 16, "days_observed": 7}}, {"type": "Feature", "geometry": {"type": "Point", "coordinates": [-118.809737, 34.2539]}, "properties": {"placekey": "zzw-222@5z5-2vs-bhq", "brand": "Subway", "top_category": "Restaurants and Other Eating Places", "sub_category": "Limited-Service Restaurants", "street_address": "525 Country Club Dr Ste E", "city": "Simi Valley", "region": "CA", "postal_code": "93065", "total_visits": 141, "avg_daily_visits": 20.1, "max_daily_visits": 32, "min_daily_visits": 11, "days_observed": 7}}, {"type": "Feature", "geometry": {"type": "Point", "coordinates": [-118.557618, 34.37849]}, "properties": {"placekey": "228-222@5z4-vwv-ht9", "brand": "Wingstop", "top_category": "Restaurants and Other Eating Places", "sub_category": "Limited-Service Restaurants", "street_address": "24180 Lyons Ave # B", "city": "Santa Clarita", "region": "CA", "postal_code": "91321", "total_visits": 277, "avg_daily_visits": 39.6, "max_daily_visits": 48, "min_daily_visits": 25, "days_observed": 7}}, {"type": "Feature", "geometry": {"type": "Point", "coordinates": [-117.577031, 33.648598]}, "properties": {"placekey": "226-222@5z4-qfj-b6k", "brand": "Jack in the Box", "top_category": "Restaurants and Other Eating Places", "sub_category": "Limited-Service Restaurants", "street_address": "21602 Plano Trabuco Rd", "city": "Trabuco Canyon", "region": "CA", "postal_code": "92679", "total_visits": 620, "avg_daily_visits": 88.6, "max_daily_visits": 119, "min_daily_visits": 61, "days_observed": 7}}, {"type": "Feature", "geometry": {"type": "Point", "coordinates": [-118.049566, 33.964997]}, "properties": {"placekey": "222-222@5z5-3nb-73q", "brand": "The Home Depot", "top_category": "Building Material and Supplies Dealers", "sub_category": "Hardware Stores", "street_address": "12322 Washington Blvd", "city": "Whittier", "region": "CA", "postal_code": "90606", "total_visits": 21, "avg_daily_visits": 3.5, "max_daily_visits": 5, "min_daily_visits": 2, "days_observed": 6}}, {"type": "Feature", "geometry": {"type": "Point", "coordinates": [-118.128817, 33.988741]}, "properties": {"placekey": "225-223@5z5-3mf-59f", "brand": "Dirt Dog", "top_category": "Restaurants and Other Eating Places", "sub_category": "Limited-Service Restaurants", "street_address": "2909 Supply Ave", "city": "Commerce", "region": "CA", "postal_code": "90040", "total_visits": 41, "avg_daily_visits": 5.9, "max_daily_visits": 9, "min_daily_visits": 2, "days_observed": 7}}, {"type": "Feature", "geometry": {"type": "Point", "coordinates": [-118.091412, 34.098438]}, "properties": {"placekey": "228-223@5z5-3kv-mtv", "brand": "Boiling Point", "top_category": "Restaurants and Other Eating Places", "sub_category": "Limited-Service Restaurants", "street_address": "315 S San Gabriel Blvd", "city": "San Gabriel", "region": "CA", "postal_code": "91776", "total_visits": 67, "avg_daily_visits": 9.6, "max_daily_visits": 19, "min_daily_visits": 1, "days_observed": 7}}, {"type": "Feature", "geometry": {"type": "Point", "coordinates": [-117.073988, 34.034277]}, "properties": {"placekey": "222-222@5z4-kns-47q", "brand": "El Pollo Loco", "top_category": "Restaurants and Other Eating Places", "sub_category": "Limited-Service Restaurants", "street_address": "33478 Yucaipa Blvd", "city": "Yucaipa", "region": "CA", "postal_code": "92399", "total_visits": 299, "avg_daily_visits": 42.7, "max_daily_visits": 50, "min_daily_visits": 36, "days_observed": 7}}, {"type": "Feature", "geometry": {"type": "Point", "coordinates": [-117.349373, 34.469923]}, "properties": {"placekey": "zzw-222@5z5-k9k-3bk", "brand": "El Pollo Loco", "top_category": "Restaurants and Other Eating Places", "sub_category": "Limited-Service Restaurants", "street_address": "14401 Bear Valley Rd", "city": "Victorville", "region": "CA", "postal_code": "92392", "total_visits": 729, "avg_daily_visits": 104.1, "max_daily_visits": 132, "min_daily_visits": 63, "days_observed": 7}}, {"type": "Feature", "geometry": {"type": "Point", "coordinates": [-117.716269, 33.627727]}, "properties": {"placekey": "zzw-222@5z6-2nf-54v", "brand": "McDonald's", "top_category": "Restaurants and Other Eating Places", "sub_category": "Limited-Service Restaurants", "street_address": "23742 Rockfield Blvd", "city": "Lake Forest", "region": "CA", "postal_code": "92630", "total_visits": 420, "avg_daily_visits": 60.0, "max_daily_visits": 70, "min_daily_visits": 40, "days_observed": 7}}, {"type": "Feature", "geometry": {"type": "Point", "coordinates": [-118.14325, 33.854182]}, "properties": {"placekey": "zzw-223@5z6-3nj-4qf", "brand": "The Honey Baked Ham Co.", "top_category": "Restaurants and Other Eating Places", "sub_category": "Limited-Service Restaurants", "street_address": "4115 Candlewood St", "city": "Lakewood", "region": "CA", "postal_code": "90712", "total_visits": 232, "avg_daily_visits": 33.1, "max_daily_visits": 49, "min_daily_visits": 16, "days_observed": 7}}, {"type": "Feature", "geometry": {"type": "Point", "coordinates": [-118.376441, 34.064112]}, "properties": {"placekey": "23h-222@5z4-zwc-qzz", "brand": "Subway", "top_category": "Restaurants and Other Eating Places", "sub_category": "Limited-Service Restaurants", "street_address": "233 S La Cienega Blvd", "city": "Beverly Hills", "region": "CA", "postal_code": "90211", "total_visits": 45, "avg_daily_visits": 6.4, "max_daily_visits": 10, "min_daily_visits": 4, "days_observed": 7}}, {"type": "Feature", "geometry": {"type": "Point", "coordinates": [-117.434182, 34.070829]}, "properties": {"placekey": "222-222@5z4-kjx-nyv", "brand": "Wendy's", "top_category": "Restaurants and Other Eating Places", "sub_category": "Limited-Service Restaurants", "street_address": "16984 Valley Blvd", "city": "Fontana", "region": "CA", "postal_code": "92335", "total_visits": 7, "avg_daily_visits": 1.4, "max_daily_visits": 3, "min_daily_visits": 1, "days_observed": 5}}, {"type": "Feature", "geometry": {"type": "Point", "coordinates": [-118.214559, 33.987952]}, "properties": {"placekey": "zzw-222@5z6-3r8-z75", "brand": "The Home Depot", "top_category": "Building Material and Supplies Dealers", "sub_category": "Hardware Stores", "street_address": "3040 E Slauson Ave", "city": "Huntington Park", "region": "CA", "postal_code": "90255", "total_visits": 939, "avg_daily_visits": 134.1, "max_daily_visits": 158, "min_daily_visits": 95, "days_observed": 7}}, {"type": "Feature", "geometry": {"type": "Point", "coordinates": [-117.846665, 33.71525]}, "properties": {"placekey": "zzw-222@5z4-rv3-8vz", "brand": "Do It Best", "top_category": "Building Material and Supplies Dealers", "sub_category": "Hardware Stores", "street_address": "1540 E Warner Ave", "city": "Santa Ana", "region": "CA", "postal_code": "92705", "total_visits": 90, "avg_daily_visits": 15.0, "max_daily_visits": 19, "min_daily_visits": 7, "days_observed": 6}}, {"type": "Feature", "geometry": {"type": "Point", "coordinates": [-117.972058, 34.069484]}, "properties": {"placekey": "zzw-222@5z5-3v4-w8v", "brand": "The Coffee Bean & Tea Leaf", "top_category": "Restaurants and Other Eating Places", "sub_category": "Limited-Service Restaurants", "street_address": "13916 Garvey Ave", "city": "Baldwin Park", "region": "CA", "postal_code": "91706", "total_visits": 434, "avg_daily_visits": 62.0, "max_daily_visits": 79, "min_daily_visits": 31, "days_observed": 7}}, {"type": "Feature", "geometry": {"type": "Point", "coordinates": [-117.397629, 34.121741]}, "properties": {"placekey": "224-222@5z4-kkm-pd9", "brand": "Popeyes Louisiana Kitchen", "top_category": "Restaurants and Other Eating Places", "sub_category": "Limited-Service Restaurants", "street_address": "1320 W Base Line Rd", "city": "Rialto", "region": "CA", "postal_code": "92376", "total_visits": 80, "avg_daily_visits": 11.4, "max_daily_visits": 22, "min_daily_visits": 7, "days_observed": 7}}, {"type": "Feature", "geometry": {"type": "Point", "coordinates": [-118.263503, 33.843183]}, "properties": {"placekey": "zzy-227@5z6-3cr-yd9", "brand": "Crumbl Cookies", "top_category": "Restaurants and Other Eating Places", "sub_category": "Limited-Service Restaurants", "street_address": "20715 S Avalon Blvd Ste 103", "city": "Carson", "region": "CA", "postal_code": "90746", "total_visits": 527, "avg_daily_visits": 75.3, "max_daily_visits": 122, "min_daily_visits": 39, "days_observed": 7}}, {"type": "Feature", "geometry": {"type": "Point", "coordinates": [-118.009386, 33.759499]}, "properties": {"placekey": "222-222@5z4-ryp-p35", "brand": "Carl's Jr.", "top_category": "Restaurants and Other Eating Places", "sub_category": "Limited-Service Restaurants", "street_address": "6751 Westminster Blvd", "city": "Westminster", "region": "CA", "postal_code": "92683", "total_visits": 91, "avg_daily_visits": 13.0, "max_daily_visits": 20, "min_daily_visits": 7, "days_observed": 7}}, {"type": "Feature", "geometry": {"type": "Point", "coordinates": [-117.872041, 34.099111]}, "properties": {"placekey": "22b-222@5z5-3tf-w8v", "brand": "Burger King", "top_category": "Restaurants and Other Eating Places", "sub_category": "Limited-Service Restaurants", "street_address": "1070 N Grand Ave", "city": "Covina", "region": "CA", "postal_code": "91724", "total_visits": 141, "avg_daily_visits": 20.1, "max_daily_visits": 25, "min_daily_visits": 13, "days_observed": 7}}, {"type": "Feature", "geometry": {"type": "Point", "coordinates": [-118.343625, 34.071313]}, "properties": {"placekey": "223-222@5z5-3r9-cnq", "brand": "sweetgreen", "top_category": "Restaurants and Other Eating Places", "sub_category": "Limited-Service Restaurants", "street_address": "180 S La Brea Ave", "city": "Los Angeles", "region": "CA", "postal_code": "90036", "total_visits": 50, "avg_daily_visits": 7.1, "max_daily_visits": 15, "min_daily_visits": 2, "days_observed": 7}}, {"type": "Feature", "geometry": {"type": "Point", "coordinates": [-117.655462, 33.6139]}, "properties": {"placekey": "zzw-22g@5z4-qhh-4sq", "brand": "Little Caesars", "top_category": "Restaurants and Other Eating Places", "sub_category": "Limited-Service Restaurants", "street_address": "24011 Marguerite Pkwy Ste D", "city": "Mission Viejo", "region": "CA", "postal_code": "92692", "total_visits": 173, "avg_daily_visits": 24.7, "max_daily_visits": 36, "min_daily_visits": 13, "days_observed": 7}}, {"type": "Feature", "geometry": {"type": "Point", "coordinates": [-117.178082, 33.574992]}, "properties": {"placekey": "223-222@5z4-qnj-9mk", "brand": "Taco Bell", "top_category": "Restaurants and Other Eating Places", "sub_category": "Limited-Service Restaurants", "street_address": "39557 Los Alamos Rd", "city": "Murrieta", "region": "CA", "postal_code": "92563", "total_visits": 2044, "avg_daily_visits": 292.0, "max_daily_visits": 331, "min_daily_visits": 221, "days_observed": 7}}, {"type": "Feature", "geometry": {"type": "Point", "coordinates": [-118.168304, 33.803942]}, "properties": {"placekey": "222-223@5z6-3cd-f4v", "brand": "McDonald's", "top_category": "Restaurants and Other Eating Places", "sub_category": "Limited-Service Restaurants", "street_address": "2599 Cherry Ave", "city": "Signal Hill", "region": "CA", "postal_code": "90755", "total_visits": 999, "avg_daily_visits": 142.7, "max_daily_visits": 183, "min_daily_visits": 77, "days_observed": 7}}, {"type": "Feature", "geometry": {"type": "Point", "coordinates": [-117.922149, 33.745552]}, "properties": {"placekey": "22d-222@5z4-ry4-fs5", "brand": "Subway", "top_category": "Restaurants and Other Eating Places", "sub_category": "Limited-Service Restaurants", "street_address": "3835 W 1st St Ste D1", "city": "Santa Ana", "region": "CA", "postal_code": "92703", "total_visits": 614, "avg_daily_visits": 87.7, "max_daily_visits": 126, "min_daily_visits": 54, "days_observed": 7}}, {"type": "Feature", "geometry": {"type": "Point", "coordinates": [-119.195419, 34.199072]}, "properties": {"placekey": "223-222@5xq-4bm-qj9", "brand": "McDonald's", "top_category": "Restaurants and Other Eating Places", "sub_category": "Limited-Service Restaurants", "street_address": "401 S Ventura Rd", "city": "Oxnard", "region": "CA", "postal_code": "93030", "total_visits": 800, "avg_daily_visits": 114.3, "max_daily_visits": 149, "min_daily_visits": 77, "days_observed": 7}}, {"type": "Feature", "geometry": {"type": "Point", "coordinates": [-118.15078, 34.115592]}, "properties": {"placekey": "22y-225@5z5-34v-4sq", "brand": "Chipotle Mexican Grill", "top_category": "Restaurants and Other Eating Places", "sub_category": "Limited-Service Restaurants", "street_address": "901 Fair Oaks Ave Unit B", "city": "South Pasadena", "region": "CA", "postal_code": "91030", "total_visits": 291, "avg_daily_visits": 41.6, "max_daily_visits": 51, "min_daily_visits": 29, "days_observed": 7}}, {"type": "Feature", "geometry": {"type": "Point", "coordinates": [-117.57643, 34.137025]}, "properties": {"placekey": "222-222@5z4-mvt-dsq", "brand": "Jack in the Box", "top_category": "Restaurants and Other Eating Places", "sub_category": "Limited-Service Restaurants", "street_address": "10473 Alta Loma Dr", "city": "Rancho Cucamonga", "region": "CA", "postal_code": "91737", "total_visits": 550, "avg_daily_visits": 78.6, "max_daily_visits": 106, "min_daily_visits": 57, "days_observed": 7}}, {"type": "Feature", "geometry": {"type": "Point", "coordinates": [-117.844713, 33.734007]}, "properties": {"placekey": "22b-222@5z4-rz6-2ff", "brand": "WaBa Grill", "top_category": "Restaurants and Other Eating Places", "sub_category": "Limited-Service Restaurants", "street_address": "1703 E McFadden Ave", "city": "Santa Ana", "region": "CA", "postal_code": "92705", "total_visits": 285, "avg_daily_visits": 40.7, "max_daily_visits": 54, "min_daily_visits": 24, "days_observed": 7}}, {"type": "Feature", "geometry": {"type": "Point", "coordinates": [-117.315973, 34.519214]}, "properties": {"placekey": "223-222@5z4-pgj-7wk", "brand": "Wendy's", "top_category": "Restaurants and Other Eating Places", "sub_category": "Limited-Service Restaurants", "street_address": "14798 La Paz Dr", "city": "Victorville", "region": "CA", "postal_code": "92395", "total_visits": 1002, "avg_daily_visits": 143.1, "max_daily_visits": 184, "min_daily_visits": 93, "days_observed": 7}}, {"type": "Feature", "geometry": {"type": "Point", "coordinates": [-117.707477, 34.05544]}, "properties": {"placekey": "226-222@5z4-rpd-h3q", "brand": "Little Caesars", "top_category": "Restaurants and Other Eating Places", "sub_category": "Limited-Service Restaurants", "street_address": "4467 Mission Blvd Ste C", "city": "Montclair", "region": "CA", "postal_code": "91763", "total_visits": 301, "avg_daily_visits": 43.0, "max_daily_visits": 57, "min_daily_visits": 21, "days_observed": 7}}, {"type": "Feature", "geometry": {"type": "Point", "coordinates": [-118.219215, 34.027565]}, "properties": {"placekey": "229-222@5z5-3rq-vfz", "brand": "McDonald's", "top_category": "Restaurants and Other Eating Places", "sub_category": "Limited-Service Restaurants", "street_address": "1210 S Soto St", "city": "Los Angeles", "region": "CA", "postal_code": "90023", "total_visits": 305, "avg_daily_visits": 43.6, "max_daily_visits": 59, "min_daily_visits": 22, "days_observed": 7}}, {"type": "Feature", "geometry": {"type": "Point", "coordinates": [-118.047388, 33.941174]}, "properties": {"placekey": "224-225@5z6-3mp-4d9", "brand": "Subway", "top_category": "Restaurants and Other Eating Places", "sub_category": "Limited-Service Restaurants", "street_address": "13345 Telegraph Rd Ste A", "city": "Whittier", "region": "CA", "postal_code": "90605", "total_visits": 217, "avg_daily_visits": 31.0, "max_daily_visits": 40, "min_daily_visits": 16, "days_observed": 7}}, {"type": "Feature", "geometry": {"type": "Point", "coordinates": [-117.962358, 33.788853]}, "properties": {"placekey": "zzw-222@5z4-ryj-45f", "brand": "Yogurtland", "top_category": "Restaurants and Other Eating Places", "sub_category": "Limited-Service Restaurants", "street_address": "9755 Chapman Ave Ste B", "city": "Garden Grove", "region": "CA", "postal_code": "92841", "total_visits": 973, "avg_daily_visits": 139.0, "max_daily_visits": 231, "min_daily_visits": 55, "days_observed": 7}}, {"type": "Feature", "geometry": {"type": "Point", "coordinates": [-117.962148, 33.788298]}, "properties": {"placekey": "zzy-222@5z4-ryj-3yv", "brand": "Jersey Mike's", "top_category": "Restaurants and Other Eating Places", "sub_category": "Limited-Service Restaurants", "street_address": "9808 Chapman Ave", "city": "Garden Grove", "region": "CA", "postal_code": "92841", "total_visits": 160, "avg_daily_visits": 22.9, "max_daily_visits": 31, "min_daily_visits": 11, "days_observed": 7}}, {"type": "Feature", "geometry": {"type": "Point", "coordinates": [-118.491299, 34.157672]}, "properties": {"placekey": "22f-222@5z4-zfk-nqz", "brand": "sweetgreen", "top_category": "Restaurants and Other Eating Places", "sub_category": "Limited-Service Restaurants", "street_address": "16403 Ventura Blvd Ste D", "city": "Encino", "region": "CA", "postal_code": "91436", "total_visits": 624, "avg_daily_visits": 89.1, "max_daily_visits": 114, "min_daily_visits": 65, "days_observed": 7}}, {"type": "Feature", "geometry": {"type": "Point", "coordinates": [-117.886725, 34.128336]}, "properties": {"placekey": "224-222@5z5-3t9-4d9", "brand": "Popeyes Louisiana Kitchen", "top_category": "Restaurants and Other Eating Places", "sub_category": "Limited-Service Restaurants", "street_address": "994 E Alosta Ave", "city": "Azusa", "region": "CA", "postal_code": "91702", "total_visits": 773, "avg_daily_visits": 110.4, "max_daily_visits": 161, "min_daily_visits": 59, "days_observed": 7}}, {"type": "Feature", "geometry": {"type": "Point", "coordinates": [-118.326182, 33.88381]}, "properties": {"placekey": "223-222@5z6-3gt-djv", "brand": "Chick-fil-A", "top_category": "Restaurants and Other Eating Places", "sub_category": "Limited-Service Restaurants", "street_address": "16210 Crenshaw Blvd", "city": "Gardena", "region": "CA", "postal_code": "90249", "total_visits": 565, "avg_daily_visits": 80.7, "max_daily_visits": 118, "min_daily_visits": 8, "days_observed": 7}}, {"type": "Feature", "geometry": {"type": "Point", "coordinates": [-117.864346, 34.107098]}, "properties": {"placekey": "222-222@5z5-3tf-4d9", "brand": "Taco Bell", "top_category": "Restaurants and Other Eating Places", "sub_category": "Limited-Service Restaurants", "street_address": "105 W Arrow Hwy", "city": "Glendora", "region": "CA", "postal_code": "91740", "total_visits": 734, "avg_daily_visits": 104.9, "max_daily_visits": 125, "min_daily_visits": 83, "days_observed": 7}}, {"type": "Feature", "geometry": {"type": "Point", "coordinates": [-117.918109, 33.658454]}, "properties": {"placekey": "225-222@5z6-2qj-zj9", "brand": "Chuck E. Cheese's", "top_category": "Restaurants and Other Eating Places", "sub_category": "Limited-Service Restaurants", "street_address": "2300 Harbor Blvd Bldg 25", "city": "Costa Mesa", "region": "CA", "postal_code": "92626", "total_visits": 1959, "avg_daily_visits": 279.9, "max_daily_visits": 396, "min_daily_visits": 158, "days_observed": 7}}, {"type": "Feature", "geometry": {"type": "Point", "coordinates": [-117.393696, 34.134577]}, "properties": {"placekey": "222-222@5z4-kkm-j5f", "brand": "Chick-fil-A", "top_category": "Restaurants and Other Eating Places", "sub_category": "Limited-Service Restaurants", "street_address": "1150 Renaissance Pkwy", "city": "Rialto", "region": "CA", "postal_code": "92376", "total_visits": 272, "avg_daily_visits": 45.3, "max_daily_visits": 60, "min_daily_visits": 33, "days_observed": 6}}, {"type": "Feature", "geometry": {"type": "Point", "coordinates": [-117.32992, 33.886473]}, "properties": {"placekey": "zzw-224@5z4-m2z-jd9", "brand": "Little Caesars", "top_category": "Restaurants and Other Eating Places", "sub_category": "Limited-Service Restaurants", "street_address": "19069 Van Buren Blvd Ste 101", "city": "Riverside", "region": "CA", "postal_code": "92508", "total_visits": 533, "avg_daily_visits": 76.1, "max_daily_visits": 89, "min_daily_visits": 48, "days_observed": 7}}, {"type": "Feature", "geometry": {"type": "Point", "coordinates": [-118.140661, 34.085506]}, "properties": {"placekey": "225-222@5z5-3k5-jn5", "brand": "The Home Depot", "top_category": "Building Material and Supplies Dealers", "sub_category": "Hardware Stores", "street_address": "500 S Marengo Ave", "city": "Alhambra", "region": "CA", "postal_code": "91803", "total_visits": 488, "avg_daily_visits": 69.7, "max_daily_visits": 93, "min_daily_visits": 49, "days_observed": 7}}, {"type": "Feature", "geometry": {"type": "Point", "coordinates": [-119.234238, 34.259778]}, "properties": {"placekey": "22b-222@5xq-5pk-9zz", "brand": "WaBa Grill", "top_category": "Restaurants and Other Eating Places", "sub_category": "Limited-Service Restaurants", "street_address": "4726 Telephone Rd Ste 1A", "city": "Ventura", "region": "CA", "postal_code": "93003", "total_visits": 868, "avg_daily_visits": 124.0, "max_daily_visits": 152, "min_daily_visits": 80, "days_observed": 7}}, {"type": "Feature", "geometry": {"type": "Point", "coordinates": [-117.919893, 33.687761]}, "properties": {"placekey": "222-222@5z6-2rr-c89", "brand": "In-N-Out Burger", "top_category": "Restaurants and Other Eating Places", "sub_category": "Limited-Service Restaurants", "street_address": "3211 Harbor Blvd", "city": "Costa Mesa", "region": "CA", "postal_code": "92626", "total_visits": 1204, "avg_daily_visits": 172.0, "max_daily_visits": 238, "min_daily_visits": 101, "days_observed": 7}}, {"type": "Feature", "geometry": {"type": "Point", "coordinates": [-117.907499, 33.715581]}, "properties": {"placekey": "224-222@5z6-2rt-g49", "brand": "Del Taco", "top_category": "Restaurants and Other Eating Places", "sub_category": "Limited-Service Restaurants", "street_address": "2841 W Warner Ave", "city": "Santa Ana", "region": "CA", "postal_code": "92704", "total_visits": 110, "avg_daily_visits": 15.7, "max_daily_visits": 24, "min_daily_visits": 12, "days_observed": 7}}, {"type": "Feature", "geometry": {"type": "Point", "coordinates": [-117.202566, 34.120331]}, "properties": {"placekey": "223-222@5z4-kt4-t5f", "brand": "Popeyes Louisiana Kitchen", "top_category": "Restaurants and Other Eating Places", "sub_category": "Limited-Service Restaurants", "street_address": "27617 Baseline St", "city": "Highland", "region": "CA", "postal_code": "92346", "total_visits": 577, "avg_daily_visits": 82.4, "max_daily_visits": 103, "min_daily_visits": 66, "days_observed": 7}}, {"type": "Feature", "geometry": {"type": "Point", "coordinates": [-118.326381, 34.094164]}, "properties": {"placekey": "zzw-223@5z5-3r7-5xq", "brand": "El Pollo Loco", "top_category": "Restaurants and Other Eating Places", "sub_category": "Limited-Service Restaurants", "street_address": "1260 Vine St", "city": "Los Angeles", "region": "CA", "postal_code": "90038", "total_visits": 122, "avg_daily_visits": 17.4, "max_daily_visits": 32, "min_daily_visits": 11, "days_observed": 7}}, {"type": "Feature", "geometry": {"type": "Point", "coordinates": [-117.55781, 34.077964]}, "properties": {"placekey": "225-222@5z4-myb-rzf", "brand": "Jersey Mike's", "top_category": "Restaurants and Other Eating Places", "sub_category": "Limited-Service Restaurants", "street_address": "9659 Milliken Ave Ste D2", "city": "Rancho Cucamonga", "region": "CA", "postal_code": "91730", "total_visits": 876, "avg_daily_visits": 125.1, "max_daily_visits": 156, "min_daily_visits": 63, "days_observed": 7}}, {"type": "Feature", "geometry": {"type": "Point", "coordinates": [-118.153352, 34.146013]}, "properties": {"placekey": "22b-222@5z5-34n-cdv", "brand": "The Shade Store", "top_category": "Building Material and Supplies Dealers", "sub_category": "Hardware Stores", "street_address": "133 W Colorado Blvd", "city": "Pasadena", "region": "CA", "postal_code": "91105", "total_visits": 69, "avg_daily_visits": 9.9, "max_daily_visits": 16, "min_daily_visits": 6, "days_observed": 7}}, {"type": "Feature", "geometry": {"type": "Point", "coordinates": [-118.409158, 34.200766]}, "properties": {"placekey": "223-228@5z4-zdn-bhq", "brand": "Subway", "top_category": "Restaurants and Other Eating Places", "sub_category": "Limited-Service Restaurants", "street_address": "12650 Sherman Way Ste 17", "city": "North Hollywood", "region": "CA", "postal_code": "91605", "total_visits": 204, "avg_daily_visits": 29.1, "max_daily_visits": 40, "min_daily_visits": 23, "days_observed": 7}}, {"type": "Feature", "geometry": {"type": "Point", "coordinates": [-117.821934, 34.006093]}, "properties": {"placekey": "222-223@5z4-rqt-bx5", "brand": "It's Just Wings", "top_category": "Restaurants and Other Eating Places", "sub_category": "Limited-Service Restaurants", "street_address": "707 Grand Ave", "city": "Diamond Bar", "region": "CA", "postal_code": "91765", "total_visits": 42, "avg_daily_visits": 6.0, "max_daily_visits": 9, "min_daily_visits": 3, "days_observed": 7}}, {"type": "Feature", "geometry": {"type": "Point", "coordinates": [-117.590593, 33.63808]}, "properties": {"placekey": "zzw-226@5z4-qfb-wp9", "brand": "Bruegger's", "top_category": "Restaurants and Other Eating Places", "sub_category": "Limited-Service Restaurants", "street_address": "22361 Antonio Pkwy Ste E110", "city": "Rancho Santa Margarita", "region": "CA", "postal_code": "92688", "total_visits": 1780, "avg_daily_visits": 254.3, "max_daily_visits": 306, "min_daily_visits": 154, "days_observed": 7}}, {"type": "Feature", "geometry": {"type": "Point", "coordinates": [-117.924612, 33.917786]}, "properties": {"placekey": "222-222@5z4-rdw-4gk", "brand": "Jack in the Box", "top_category": "Restaurants and Other Eating Places", "sub_category": "Limited-Service Restaurants", "street_address": "439 Imperial Hwy", "city": "Fullerton", "region": "CA", "postal_code": "92835", "total_visits": 155, "avg_daily_visits": 22.1, "max_daily_visits": 31, "min_daily_visits": 14, "days_observed": 7}}, {"type": "Feature", "geometry": {"type": "Point", "coordinates": [-118.013567, 33.802581]}, "properties": {"placekey": "zzw-227@5z6-3p6-dn5", "brand": "The Habit Burger Grill", "top_category": "Restaurants and Other Eating Places", "sub_category": "Limited-Service Restaurants", "street_address": "6830 Katella Ave", "city": "Cypress", "region": "CA", "postal_code": "90630", "total_visits": 428, "avg_daily_visits": 61.1, "max_daily_visits": 85, "min_daily_visits": 39, "days_observed": 7}}, {"type": "Feature", "geometry": {"type": "Point", "coordinates": [-118.329969, 33.802674]}, "properties": {"placekey": "zzy-222@5z6-3c6-3dv", "brand": "Crumbl Cookies", "top_category": "Restaurants and Other Eating Places", "sub_category": "Limited-Service Restaurants", "street_address": "24667 Crenshaw Blvd Ste E", "city": "Torrance", "region": "CA", "postal_code": "90505", "total_visits": 1069, "avg_daily_visits": 152.7, "max_daily_visits": 204, "min_daily_visits": 85, "days_observed": 7}}, {"type": "Feature", "geometry": {"type": "Point", "coordinates": [-117.241485, 33.594755]}, "properties": {"placekey": "zzw-223@5z4-qmk-33q", "brand": "Ace Hardware", "top_category": "Building Material and Supplies Dealers", "sub_category": "Hardware Stores", "street_address": "23881 Clinton Keith Rd", "city": "Wildomar", "region": "CA", "postal_code": "92595", "total_visits": 526, "avg_daily_visits": 75.1, "max_daily_visits": 91, "min_daily_visits": 53, "days_observed": 7}}, {"type": "Feature", "geometry": {"type": "Point", "coordinates": [-118.26708, 33.872125]}, "properties": {"placekey": "222-222@5z6-3rp-y5f", "brand": "Panda Express", "top_category": "Restaurants and Other Eating Places", "sub_category": "Limited-Service Restaurants", "street_address": "501 E Albertoni St", "city": "Carson", "region": "CA", "postal_code": "90746", "total_visits": 355, "avg_daily_visits": 50.7, "max_daily_visits": 65, "min_daily_visits": 31, "days_observed": 7}}, {"type": "Feature", "geometry": {"type": "Point", "coordinates": [-118.259215, 34.14496]}, "properties": {"placekey": "238-222@5z5-3qh-789", "brand": "Hot Dog on a Stick", "top_category": "Restaurants and Other Eating Places", "sub_category": "Limited-Service Restaurants", "street_address": "1146 Glendale Galleria", "city": "Glendale", "region": "CA", "postal_code": "91210", "total_visits": 12, "avg_daily_visits": 2.4, "max_daily_visits": 7, "min_daily_visits": 1, "days_observed": 5}}, {"type": "Feature", "geometry": {"type": "Point", "coordinates": [-117.395996, 34.107983]}, "properties": {"placekey": "229-222@5z4-kkf-g6k", "brand": "WaBa Grill", "top_category": "Restaurants and Other Eating Places", "sub_category": "Limited-Service Restaurants", "street_address": "1290 W Foothill Blvd", "city": "Rialto", "region": "CA", "postal_code": "92376", "total_visits": 525, "avg_daily_visits": 75.0, "max_daily_visits": 94, "min_daily_visits": 41, "days_observed": 7}}, {"type": "Feature", "geometry": {"type": "Point", "coordinates": [-117.241009, 33.596786]}, "properties": {"placekey": "22c-222@5z4-qmj-wx5", "brand": "WaBa Grill", "top_category": "Restaurants and Other Eating Places", "sub_category": "Limited-Service Restaurants", "street_address": "23905 Clinton Keith Rd Ste 101", "city": "Wildomar", "region": "CA", "postal_code": "92595", "total_visits": 612, "avg_daily_visits": 87.4, "max_daily_visits": 111, "min_daily_visits": 60, "days_observed": 7}}, {"type": "Feature", "geometry": {"type": "Point", "coordinates": [-118.330288, 33.804296]}, "properties": {"placekey": "225-222@5z6-3c6-5pv", "brand": "The Flame Broiler", "top_category": "Restaurants and Other Eating Places", "sub_category": "Limited-Service Restaurants", "street_address": "24427 Crenshaw Blvd", "city": "Torrance", "region": "CA", "postal_code": "90505", "total_visits": 718, "avg_daily_visits": 102.6, "max_daily_visits": 129, "min_daily_visits": 67, "days_observed": 7}}, {"type": "Feature", "geometry": {"type": "Point", "coordinates": [-117.827728, 33.88798]}, "properties": {"placekey": "22g-222@5z4-rcj-789", "brand": "Yogurtland", "top_category": "Restaurants and Other Eating Places", "sub_category": "Limited-Service Restaurants", "street_address": "17486 Yorba Linda Blvd", "city": "Yorba Linda", "region": "CA", "postal_code": "92886", "total_visits": 1272, "avg_daily_visits": 181.7, "max_daily_visits": 276, "min_daily_visits": 95, "days_observed": 7}}, {"type": "Feature", "geometry": {"type": "Point", "coordinates": [-118.369326, 33.898703]}, "properties": {"placekey": "222-222@5z6-3gv-py9", "brand": "The Home Depot", "top_category": "Building Material and Supplies Dealers", "sub_category": "Hardware Stores", "street_address": "14603 Ocean Gate Ave", "city": "Hawthorne", "region": "CA", "postal_code": "90250", "total_visits": 683, "avg_daily_visits": 97.6, "max_daily_visits": 127, "min_daily_visits": 58, "days_observed": 7}}, {"type": "Feature", "geometry": {"type": "Point", "coordinates": [-117.959952, 33.788962]}, "properties": {"placekey": "zzw-225@5z4-ryj-575", "brand": "Carl's Jr.", "top_category": "Restaurants and Other Eating Places", "sub_category": "Limited-Service Restaurants", "street_address": "9917 Chapman Ave", "city": "Garden Grove", "region": "CA", "postal_code": "92841", "total_visits": 943, "avg_daily_visits": 134.7, "max_daily_visits": 189, "min_daily_visits": 69, "days_observed": 7}}, {"type": "Feature", "geometry": {"type": "Point", "coordinates": [-118.416543, 34.187539]}, "properties": {"placekey": "zzw-228@5z4-zc7-9vf", "brand": "Subway", "top_category": "Restaurants and Other Eating Places", "sub_category": "Limited-Service Restaurants", "street_address": "13009 Victory Blvd", "city": "North Hollywood", "region": "CA", "postal_code": "91606", "total_visits": 1241, "avg_daily_visits": 177.3, "max_daily_visits": 219, "min_daily_visits": 102, "days_observed": 7}}, {"type": "Feature", "geometry": {"type": "Point", "coordinates": [-118.84262, 34.209984]}, "properties": {"placekey": "223-223@5z4-z87-grk", "brand": "Ace Hardware", "top_category": "Building Material and Supplies Dealers", "sub_category": "Hardware Stores", "street_address": "1934 E Avenida de los Arboles", "city": "Thousand Oaks", "region": "CA", "postal_code": "91362", "total_visits": 1558, "avg_daily_visits": 222.6, "max_daily_visits": 269, "min_daily_visits": 140, "days_observed": 7}}, {"type": "Feature", "geometry": {"type": "Point", "coordinates": [-117.97351, 34.067656]}, "properties": {"placekey": "zzy-222@5z5-3v4-9cq", "brand": "In-N-Out Burger", "top_category": "Restaurants and Other Eating Places", "sub_category": "Limited-Service Restaurants", "street_address": "13850 Francisquito Ave", "city": "Baldwin Park", "region": "CA", "postal_code": "91706", "total_visits": 524, "avg_daily_visits": 74.9, "max_daily_visits": 112, "min_daily_visits": 29, "days_observed": 7}}, {"type": "Feature", "geometry": {"type": "Point", "coordinates": [-117.243203, 34.047091]}, "properties": {"placekey": "zzw-223@5z4-kg3-wc5", "brand": "Firehouse Subs", "top_category": "Restaurants and Other Eating Places", "sub_category": "Limited-Service Restaurants", "street_address": "25713 Barton Rd", "city": "Loma Linda", "region": "CA", "postal_code": "92354", "total_visits": 1030, "avg_daily_visits": 147.1, "max_daily_visits": 180, "min_daily_visits": 106, "days_observed": 7}}, {"type": "Feature", "geometry": {"type": "Point", "coordinates": [-118.371196, 34.158208]}, "properties": {"placekey": "225-224@5z4-zd6-x3q", "brand": "It's Boba Time", "top_category": "Restaurants and Other Eating Places", "sub_category": "Limited-Service Restaurants", "street_address": "4821 Lankershim Blvd Ste C", "city": "North Hollywood", "region": "CA", "postal_code": "91601", "total_visits": 102, "avg_daily_visits": 14.6, "max_daily_visits": 20, "min_daily_visits": 5, "days_observed": 7}}, {"type": "Feature", "geometry": {"type": "Point", "coordinates": [-117.557991, 34.120324]}, "properties": {"placekey": "zzw-223@5z4-mvz-z4v", "brand": "Carl's Jr.", "top_category": "Restaurants and Other Eating Places", "sub_category": "Limited-Service Restaurants", "street_address": "7359 Milliken Ave", "city": "Rancho Cucamonga", "region": "CA", "postal_code": "91730", "total_visits": 427, "avg_daily_visits": 61.0, "max_daily_visits": 68, "min_daily_visits": 45, "days_observed": 7}}, {"type": "Feature", "geometry": {"type": "Point", "coordinates": [-118.25652, 33.903133]}, "properties": {"placekey": "223-226@5z6-3sb-8n5", "brand": "Domino's Pizza", "top_category": "Restaurants and Other Eating Places", "sub_category": "Limited-Service Restaurants", "street_address": "2251 W Rosecrans Ave Ste 4", "city": "Compton", "region": "CA", "postal_code": "90222", "total_visits": 253, "avg_daily_visits": 36.1, "max_daily_visits": 48, "min_daily_visits": 20, "days_observed": 7}}, {"type": "Feature", "geometry": {"type": "Point", "coordinates": [-117.958624, 33.819522]}, "properties": {"placekey": "225-222@5z4-rx2-vfz", "brand": "Subway", "top_category": "Restaurants and Other Eating Places", "sub_category": "Limited-Service Restaurants", "street_address": "920 S Brookhurst St", "city": "Anaheim", "region": "CA", "postal_code": "92804", "total_visits": 74, "avg_daily_visits": 10.6, "max_daily_visits": 18, "min_daily_visits": 6, "days_observed": 7}}, {"type": "Feature", "geometry": {"type": "Point", "coordinates": [-118.393462, 33.865334]}, "properties": {"placekey": "22b-222@5z6-3gs-bp9", "brand": "Chipotle Mexican Grill", "top_category": "Restaurants and Other Eating Places", "sub_category": "Limited-Service Restaurants", "street_address": "1439 Pacific Coast Hwy", "city": "Hermosa Beach", "region": "CA", "postal_code": "90254", "total_visits": 663, "avg_daily_visits": 94.7, "max_daily_visits": 106, "min_daily_visits": 74, "days_observed": 7}}, {"type": "Feature", "geometry": {"type": "Point", "coordinates": [-117.716437, 33.996642]}, "properties": {"placekey": "228-223@5z4-rqz-swk", "brand": "Crumbl Cookies", "top_category": "Restaurants and Other Eating Places", "sub_category": "Limited-Service Restaurants", "street_address": "4005 Grand Ave Ste C", "city": "Chino", "region": "CA", "postal_code": "91710", "total_visits": 3309, "avg_daily_visits": 472.7, "max_daily_visits": 657, "min_daily_visits": 221, "days_observed": 7}}, {"type": "Feature", "geometry": {"type": "Point", "coordinates": [-118.143137, 34.039355]}, "properties": {"placekey": "22p-222@5z5-3k7-2tv", "brand": "Panda Express", "top_category": "Restaurants and Other Eating Places", "sub_category": "Limited-Service Restaurants", "street_address": "2086 S Atlantic Blvd", "city": "Monterey Park", "region": "CA", "postal_code": "91754", "total_visits": 488, "avg_daily_visits": 69.7, "max_daily_visits": 99, "min_daily_visits": 44, "days_observed": 7}}, {"type": "Feature", "geometry": {"type": "Point", "coordinates": [-117.956698, 33.916019]}, "properties": {"placekey": "222-228@5z4-rgh-ffz", "brand": "Pizza Hut", "top_category": "Restaurants and Other Eating Places", "sub_category": "Limited-Service Restaurants", "street_address": "1000 W Imperial Hwy", "city": "La Habra", "region": "CA", "postal_code": "90631", "total_visits": 1121, "avg_daily_visits": 160.1, "max_daily_visits": 223, "min_daily_visits": 86, "days_observed": 7}}, {"type": "Feature", "geometry": {"type": "Point", "coordinates": [-117.918026, 33.680454]}, "properties": {"placekey": "zzw-22j@5z6-2rx-sh5", "brand": "Chronic Tacos", "top_category": "Restaurants and Other Eating Places", "sub_category": "Limited-Service Restaurants", "street_address": "1460 Baker St", "city": "Costa Mesa", "region": "CA", "postal_code": "92626", "total_visits": 1196, "avg_daily_visits": 170.9, "max_daily_visits": 235, "min_daily_visits": 87, "days_observed": 7}}, {"type": "Feature", "geometry": {"type": "Point", "coordinates": [-117.702592, 33.654366]}, "properties": {"placekey": "22s-224@5z4-rvn-rhq", "brand": "Subway", "top_category": "Restaurants and Other Eating Places", "sub_category": "Limited-Service Restaurants", "street_address": "21212 Bake Pkwy Ste E", "city": "Lake Forest", "region": "CA", "postal_code": "92630", "total_visits": 193, "avg_daily_visits": 27.6, "max_daily_visits": 40, "min_daily_visits": 16, "days_observed": 7}}, {"type": "Feature", "geometry": {"type": "Point", "coordinates": [-118.040945, 33.723072]}, "properties": {"placekey": "zzw-224@5z6-43t-99f", "brand": "Domino's Pizza", "top_category": "Restaurants and Other Eating Places", "sub_category": "Limited-Service Restaurants", "street_address": "16486 Bolsa Chica St", "city": "Huntington Beach", "region": "CA", "postal_code": "92649", "total_visits": 210, "avg_daily_visits": 30.0, "max_daily_visits": 42, "min_daily_visits": 18, "days_observed": 7}}, {"type": "Feature", "geometry": {"type": "Point", "coordinates": [-118.134337, 34.106035]}, "properties": {"placekey": "225-222@5z5-34t-hyv", "brand": "In-N-Out Burger", "top_category": "Restaurants and Other Eating Places", "sub_category": "Limited-Service Restaurants", "street_address": "1210 N Atlantic Blvd", "city": "Alhambra", "region": "CA", "postal_code": "91801", "total_visits": 169, "avg_daily_visits": 24.1, "max_daily_visits": 34, "min_daily_visits": 18, "days_observed": 7}}, {"type": "Feature", "geometry": {"type": "Point", "coordinates": [-118.017746, 34.139898]}, "properties": {"placekey": "223-224@5z5-3t3-fmk", "brand": "Chick-fil-A", "top_category": "Restaurants and Other Eating Places", "sub_category": "Limited-Service Restaurants", "street_address": "820 W Huntington Dr", "city": "Monrovia", "region": "CA", "postal_code": "91016", "total_visits": 531, "avg_daily_visits": 75.9, "max_daily_visits": 135, "min_daily_visits": 14, "days_observed": 7}}, {"type": "Feature", "geometry": {"type": "Point", "coordinates": [-118.154101, 34.019486]}, "properties": {"placekey": "22f-223@5z5-3ms-pgk", "brand": "Pizza Hut", "top_category": "Restaurants and Other Eating Places", "sub_category": "Limited-Service Restaurants", "street_address": "5406 Whittier Blvd", "city": "East Los Angeles", "region": "CA", "postal_code": "90022", "total_visits": 104, "avg_daily_visits": 14.9, "max_daily_visits": 18, "min_daily_visits": 10, "days_observed": 7}}, {"type": "Feature", "geometry": {"type": "Point", "coordinates": [-118.396737, 33.924892]}, "properties": {"placekey": "222-222@5z6-3h8-wkz", "brand": "Carl's Jr.", "top_category": "Restaurants and Other Eating Places", "sub_category": "Limited-Service Restaurants", "street_address": "639 N Pacific Coast Hwy", "city": "El Segundo", "region": "CA", "postal_code": "90245", "total_visits": 47, "avg_daily_visits": 6.7, "max_daily_visits": 9, "min_daily_visits": 4, "days_observed": 7}}, {"type": "Feature", "geometry": {"type": "Point", "coordinates": [-117.813723, 33.7337]}, "properties": {"placekey": "224-224@5z4-rsj-f4v", "brand": "The Meltdown", "top_category": "Restaurants and Other Eating Places", "sub_category": "Limited-Service Restaurants", "street_address": "1571 El Camino Real", "city": "Tustin", "region": "CA", "postal_code": "92780", "total_visits": 295, "avg_daily_visits": 42.1, "max_daily_visits": 65, "min_daily_visits": 22, "days_observed": 7}}, {"type": "Feature", "geometry": {"type": "Point", "coordinates": [-118.184706, 33.775148]}, "properties": {"placekey": "22v-222@5z6-3cj-49z", "brand": "Jack in the Box", "top_category": "Restaurants and Other Eating Places", "sub_category": "Limited-Service Restaurants", "street_address": "652 Atlantic Ave", "city": "Long Beach", "region": "CA", "postal_code": "90802", "total_visits": 131, "avg_daily_visits": 18.7, "max_daily_visits": 24, "min_daily_visits": 8, "days_observed": 7}}, {"type": "Feature", "geometry": {"type": "Point", "coordinates": [-118.369967, 34.20065]}, "properties": {"placekey": "zzw-225@5z4-zcy-rx5", "brand": "Pollo Campero", "top_category": "Restaurants and Other Eating Places", "sub_category": "Limited-Service Restaurants", "street_address": "10960 Sherman Way", "city": "Burbank", "region": "CA", "postal_code": "91505", "total_visits": 426, "avg_daily_visits": 60.9, "max_daily_visits": 79, "min_daily_visits": 47, "days_observed": 7}}, {"type": "Feature", "geometry": {"type": "Point", "coordinates": [-118.448289, 34.215041]}, "properties": {"placekey": "223-222@5z4-zdp-cwk", "brand": "In-N-Out Burger", "top_category": "Restaurants and Other Eating Places", "sub_category": "Limited-Service Restaurants", "street_address": "7930 Van Nuys Blvd", "city": "Van Nuys", "region": "CA", "postal_code": "91402", "total_visits": 1181, "avg_daily_visits": 168.7, "max_daily_visits": 227, "min_daily_visits": 96, "days_observed": 7}}, {"type": "Feature", "geometry": {"type": "Point", "coordinates": [-118.115108, 33.888837]}, "properties": {"placekey": "222-222@5z6-3m2-rhq", "brand": "Taco Bell", "top_category": "Restaurants and Other Eating Places", "sub_category": "Limited-Service Restaurants", "street_address": "10300 Alondra Blvd", "city": "Bellflower", "region": "CA", "postal_code": "90706", "total_visits": 135, "avg_daily_visits": 19.3, "max_daily_visits": 28, "min_daily_visits": 11, "days_observed": 7}}, {"type": "Feature", "geometry": {"type": "Point", "coordinates": [-117.688118, 34.088326]}, "properties": {"placekey": "229-222@5z4-my4-bx5", "brand": "Harbor Freight Tools", "top_category": "Building Material and Supplies Dealers", "sub_category": "Hardware Stores", "street_address": "9137 Central Ave Ste B", "city": "Montclair", "region": "CA", "postal_code": "91763", "total_visits": 671, "avg_daily_visits": 95.9, "max_daily_visits": 147, "min_daily_visits": 47, "days_observed": 7}}, {"type": "Feature", "geometry": {"type": "Point", "coordinates": [-118.263455, 33.779343]}, "properties": {"placekey": "22c-222@5z6-3bf-mp9", "brand": "Subway", "top_category": "Restaurants and Other Eating Places", "sub_category": "Limited-Service Restaurants", "street_address": "132 W Anaheim St", "city": "Wilmington", "region": "CA", "postal_code": "90744", "total_visits": 325, "avg_daily_visits": 46.4, "max_daily_visits": 59, "min_daily_visits": 27, "days_observed": 7}}, {"type": "Feature", "geometry": {"type": "Point", "coordinates": [-117.534486, 34.10579]}, "properties": {"placekey": "225-222@5z4-myf-73q", "brand": "El Pollo Loco", "top_category": "Restaurants and Other Eating Places", "sub_category": "Limited-Service Restaurants", "street_address": "12401 Foothill Blvd", "city": "Rancho Cucamonga", "region": "CA", "postal_code": "91739", "total_visits": 160, "avg_daily_visits": 22.9, "max_daily_visits": 31, "min_daily_visits": 16, "days_observed": 7}}, {"type": "Feature", "geometry": {"type": "Point", "coordinates": [-118.325964, 33.959765]}, "properties": {"placekey": "22q-222@5z6-3qb-zfz", "brand": "Buffalo's Express", "top_category": "Restaurants and Other Eating Places", "sub_category": "Limited-Service Restaurants", "street_address": "3020 W Manchester Blvd", "city": "Inglewood", "region": "CA", "postal_code": "90305", "total_visits": 24, "avg_daily_visits": 3.4, "max_daily_visits": 6, "min_daily_visits": 2, "days_observed": 7}}, {"type": "Feature", "geometry": {"type": "Point", "coordinates": [-117.335165, 33.691036]}, "properties": {"placekey": "zzw-222@5z4-qrt-qmk", "brand": "Chick-fil-A", "top_category": "Restaurants and Other Eating Places", "sub_category": "Limited-Service Restaurants", "street_address": "18601 Dexter Ave", "city": "Lake Elsinore", "region": "CA", "postal_code": "92532", "total_visits": 705, "avg_daily_visits": 100.7, "max_daily_visits": 175, "min_daily_visits": 5, "days_observed": 7}}, {"type": "Feature", "geometry": {"type": "Point", "coordinates": [-118.288411, 33.831136]}, "properties": {"placekey": "222-222@5z6-3by-kj9", "brand": "In-N-Out Burger", "top_category": "Restaurants and Other Eating Places", "sub_category": "Limited-Service Restaurants", "street_address": "730 W Carson St", "city": "Torrance", "region": "CA", "postal_code": "90502", "total_visits": 62, "avg_daily_visits": 8.9, "max_daily_visits": 13, "min_daily_visits": 6, "days_observed": 7}}, {"type": "Feature", "geometry": {"type": "Point", "coordinates": [-117.923176, 33.990107]}, "properties": {"placekey": "22p-222@5z4-rg7-btv", "brand": "Subway", "top_category": "Restaurants and Other Eating Places", "sub_category": "Limited-Service Restaurants", "street_address": "17550 Colima Rd # Store # 36", "city": "Rowland Heights", "region": "CA", "postal_code": "91748", "total_visits": 12, "avg_daily_visits": 2.0, "max_daily_visits": 4, "min_daily_visits": 1, "days_observed": 6}}, {"type": "Feature", "geometry": {"type": "Point", "coordinates": [-118.12353, 34.021205]}, "properties": {"placekey": "228-222@5z5-3jt-2p9", "brand": "Popeyes Louisiana Kitchen", "top_category": "Restaurants and Other Eating Places", "sub_category": "Limited-Service Restaurants", "street_address": "2202 W Beverly Blvd", "city": "Montebello", "region": "CA", "postal_code": "90640", "total_visits": 346, "avg_daily_visits": 49.4, "max_daily_visits": 58, "min_daily_visits": 33, "days_observed": 7}}, {"type": "Feature", "geometry": {"type": "Point", "coordinates": [-118.152249, 33.774776]}, "properties": {"placekey": "22c-222@5z6-43h-gtv", "brand": "Subway", "top_category": "Restaurants and Other Eating Places", "sub_category": "Limited-Service Restaurants", "street_address": "656 Redondo Ave", "city": "Long Beach", "region": "CA", "postal_code": "90814", "total_visits": 9, "avg_daily_visits": 1.8, "max_daily_visits": 3, "min_daily_visits": 1, "days_observed": 5}}, {"type": "Feature", "geometry": {"type": "Point", "coordinates": [-118.365188, 33.987833]}, "properties": {"placekey": "zzw-222@5z4-zxf-rkz", "brand": "McDonald's", "top_category": "Restaurants and Other Eating Places", "sub_category": "Limited-Service Restaurants", "street_address": "5015 W Slauson Ave", "city": "Los Angeles", "region": "CA", "postal_code": "90056", "total_visits": 516, "avg_daily_visits": 73.7, "max_daily_visits": 86, "min_daily_visits": 52, "days_observed": 7}}, {"type": "Feature", "geometry": {"type": "Point", "coordinates": [-117.148972, 33.504183]}, "properties": {"placekey": "225-222@5z4-r3c-92k", "brand": "Mountain Mike's Pizza", "top_category": "Restaurants and Other Eating Places", "sub_category": "Limited-Service Restaurants", "street_address": "27644 Ynez Rd", "city": "Temecula", "region": "CA", "postal_code": "92591", "total_visits": 617, "avg_daily_visits": 88.1, "max_daily_visits": 97, "min_daily_visits": 74, "days_observed": 7}}, {"type": "Feature", "geometry": {"type": "Point", "coordinates": [-119.067686, 34.221843]}, "properties": {"placekey": "222-222@5xq-4ch-bhq", "brand": "Taco Bell", "top_category": "Restaurants and Other Eating Places", "sub_category": "Limited-Service Restaurants", "street_address": "95 E Daily Dr", "city": "Camarillo", "region": "CA", "postal_code": "93010", "total_visits": 499, "avg_daily_visits": 71.3, "max_daily_visits": 85, "min_daily_visits": 51, "days_observed": 7}}, {"type": "Feature", "geometry": {"type": "Point", "coordinates": [-117.225198, 33.888804]}, "properties": {"placekey": "zzy-222@5z4-kxt-gzf", "brand": "Pizza Hut", "top_category": "Restaurants and Other Eating Places", "sub_category": "Limited-Service Restaurants", "street_address": "15974 Perris Blvd", "city": "Moreno Valley", "region": "CA", "postal_code": "92551", "total_visits": 238, "avg_daily_visits": 34.0, "max_daily_visits": 52, "min_daily_visits": 24, "days_observed": 7}}, {"type": "Feature", "geometry": {"type": "Point", "coordinates": [-117.663442, 33.494926]}, "properties": {"placekey": "22b-222@5z6-2pv-d9z", "brand": "Domino's Pizza", "top_category": "Restaurants and Other Eating Places", "sub_category": "Limited-Service Restaurants", "street_address": "32211 Camino Capistrano Ste E102", "city": "San Juan Capistrano", "region": "CA", "postal_code": "92675", "total_visits": 143, "avg_daily_visits": 20.4, "max_daily_visits": 26, "min_daily_visits": 14, "days_observed": 7}}, {"type": "Feature", "geometry": {"type": "Point", "coordinates": [-117.291594, 34.419697]}, "properties": {"placekey": "222-222@5z4-pht-7nq", "brand": "Burger King", "top_category": "Restaurants and Other Eating Places", "sub_category": "Limited-Service Restaurants", "street_address": "17021 Main St", "city": "Hesperia", "region": "CA", "postal_code": "92345", "total_visits": 326, "avg_daily_visits": 46.6, "max_daily_visits": 62, "min_daily_visits": 33, "days_observed": 7}}, {"type": "Feature", "geometry": {"type": "Point", "coordinates": [-118.343866, 34.098215]}, "properties": {"placekey": "22b-222@5z5-3r3-qvf", "brand": "Burger King", "top_category": "Restaurants and Other Eating Places", "sub_category": "Limited-Service Restaurants", "street_address": "7079 W Sunset Blvd", "city": "Hollywood", "region": "CA", "postal_code": "90028", "total_visits": 152, "avg_daily_visits": 21.7, "max_daily_visits": 37, "min_daily_visits": 13, "days_observed": 7}}, {"type": "Feature", "geometry": {"type": "Point", "coordinates": [-117.623615, 33.438773]}, "properties": {"placekey": "zzy-223@5z4-qzg-n5z", "brand": "The Burger Den", "top_category": "Restaurants and Other Eating Places", "sub_category": "Limited-Service Restaurants", "street_address": "529 E Avenida Pico", "city": "San Clemente", "region": "CA", "postal_code": "92672", "total_visits": 138, "avg_daily_visits": 19.7, "max_daily_visits": 38, "min_daily_visits": 5, "days_observed": 7}}, {"type": "Feature", "geometry": {"type": "Point", "coordinates": [-118.101526, 33.983662]}, "properties": {"placekey": "224-222@5z5-3mb-yvz", "brand": "Subway", "top_category": "Restaurants and Other Eating Places", "sub_category": "Limited-Service Restaurants", "street_address": "8730 Washington Blvd", "city": "Pico Rivera", "region": "CA", "postal_code": "90660", "total_visits": 927, "avg_daily_visits": 132.4, "max_daily_visits": 180, "min_daily_visits": 69, "days_observed": 7}}, {"type": "Feature", "geometry": {"type": "Point", "coordinates": [-118.04745, 34.557476]}, "properties": {"placekey": "223-222@5z4-xtc-mzf", "brand": "Domino's Pizza", "top_category": "Restaurants and Other Eating Places", "sub_category": "Limited-Service Restaurants", "street_address": "4604 E Avenue S", "city": "Palmdale", "region": "CA", "postal_code": "93552", "total_visits": 569, "avg_daily_visits": 81.3, "max_daily_visits": 108, "min_daily_visits": 45, "days_observed": 7}}, {"type": "Feature", "geometry": {"type": "Point", "coordinates": [-118.071035, 33.806971]}, "properties": {"placekey": "222-222@5z6-3p3-qzz", "brand": "Do It Best", "top_category": "Building Material and Supplies Dealers", "sub_category": "Hardware Stores", "street_address": "10742 Los Alamitos Blvd", "city": "Los Alamitos", "region": "CA", "postal_code": "90720", "total_visits": 90, "avg_daily_visits": 15.0, "max_daily_visits": 20, "min_daily_visits": 11, "days_observed": 6}}, {"type": "Feature", "geometry": {"type": "Point", "coordinates": [-118.579207, 34.259023]}, "properties": {"placekey": "227-222@5z4-zgn-zcq", "brand": "The Flame Broiler", "top_category": "Restaurants and Other Eating Places", "sub_category": "Limited-Service Restaurants", "street_address": "10364 Mason Ave", "city": "Chatsworth", "region": "CA", "postal_code": "91311", "total_visits": 529, "avg_daily_visits": 75.6, "max_daily_visits": 92, "min_daily_visits": 44, "days_observed": 7}}, {"type": "Feature", "geometry": {"type": "Point", "coordinates": [-118.309757, 34.090199]}, "properties": {"placekey": "22d-222@5z5-3r7-c5z", "brand": "Yoshinoya", "top_category": "Restaurants and Other Eating Places", "sub_category": "Limited-Service Restaurants", "street_address": "1075 N Western Ave Ste 109", "city": "Los Angeles", "region": "CA", "postal_code": "90029", "total_visits": 200, "avg_daily_visits": 28.6, "max_daily_visits": 40, "min_daily_visits": 11, "days_observed": 7}}, {"type": "Feature", "geometry": {"type": "Point", "coordinates": [-118.378131, 33.971217]}, "properties": {"placekey": "223-224@5z4-zxb-g6k", "brand": "Wendy's", "top_category": "Restaurants and Other Eating Places", "sub_category": "Limited-Service Restaurants", "street_address": "7360 La Tijera Blvd", "city": "Los Angeles", "region": "CA", "postal_code": "90045", "total_visits": 319, "avg_daily_visits": 45.6, "max_daily_visits": 63, "min_daily_visits": 22, "days_observed": 7}}, {"type": "Feature", "geometry": {"type": "Point", "coordinates": [-118.311646, 34.098593]}, "properties": {"placekey": "227-224@5z5-3r6-n3q", "brand": "Burger King", "top_category": "Restaurants and Other Eating Places", "sub_category": "Limited-Service Restaurants", "street_address": "5609 W Sunset Blvd", "city": "Los Angeles", "region": "CA", "postal_code": "90028", "total_visits": 109, "avg_daily_visits": 15.6, "max_daily_visits": 22, "min_daily_visits": 13, "days_observed": 7}}, {"type": "Feature", "geometry": {"type": "Point", "coordinates": [-117.771549, 33.689008]}, "properties": {"placekey": "zzw-225@5z4-rs6-5zz", "brand": "Ameci Pizza and Pasta", "top_category": "Restaurants and Other Eating Places", "sub_category": "Limited-Service Restaurants", "street_address": "14775 Jeffrey Rd Ste D", "city": "Irvine", "region": "CA", "postal_code": "92618", "total_visits": 221, "avg_daily_visits": 31.6, "max_daily_visits": 39, "min_daily_visits": 20, "days_observed": 7}}, {"type": "Feature", "geometry": {"type": "Point", "coordinates": [-117.836857, 33.809992]}, "properties": {"placekey": "zzy-222@5z4-rx8-ysq", "brand": "Jersey Mike's", "top_category": "Restaurants and Other Eating Places", "sub_category": "Limited-Service Restaurants", "street_address": "1545 E Katella Ave", "city": "Orange", "region": "CA", "postal_code": "92867", "total_visits": 104, "avg_daily_visits": 14.9, "max_daily_visits": 21, "min_daily_visits": 8, "days_observed": 7}}, {"type": "Feature", "geometry": {"type": "Point", "coordinates": [-118.413189, 34.14563]}, "properties": {"placekey": "222-226@5z4-zfr-4d9", "brand": "Tocaya", "top_category": "Restaurants and Other Eating Places", "sub_category": "Limited-Service Restaurants", "street_address": "12833 Ventura Blvd # 165", "city": "Studio City", "region": "CA", "postal_code": "91604", "total_visits": 71, "avg_daily_visits": 10.1, "max_daily_visits": 15, "min_daily_visits": 2, "days_observed": 7}}, {"type": "Feature", "geometry": {"type": "Point", "coordinates": [-118.337048, 34.105665]}, "properties": {"placekey": "222-224@5z5-3r8-rzf", "brand": "Subway", "top_category": "Restaurants and Other Eating Places", "sub_category": "Limited-Service Restaurants", "street_address": "1900 N Highland Ave", "city": "Los Angeles", "region": "CA", "postal_code": "90068", "total_visits": 81, "avg_daily_visits": 11.6, "max_daily_visits": 18, "min_daily_visits": 8, "days_observed": 7}}, {"type": "Feature", "geometry": {"type": "Point", "coordinates": [-118.164415, 33.966902]}, "properties": {"placekey": "225-222@5z6-3qn-3bk", "brand": "Roll \u2018Em Up", "top_category": "Restaurants and Other Eating Places", "sub_category": "Limited-Service Restaurants", "street_address": "7220 Eastern Ave Ste F", "city": "Bell Gardens", "region": "CA", "postal_code": "90201", "total_visits": 1125, "avg_daily_visits": 160.7, "max_daily_visits": 204, "min_daily_visits": 112, "days_observed": 7}}, {"type": "Feature", "geometry": {"type": "Point", "coordinates": [-117.636065, 34.131221]}, "properties": {"placekey": "222-222@5z4-mxx-py9", "brand": "El Pollo Loco", "top_category": "Restaurants and Other Eating Places", "sub_category": "Limited-Service Restaurants", "street_address": "1126 E 19th St", "city": "Upland", "region": "CA", "postal_code": "91784", "total_visits": 95, "avg_daily_visits": 13.6, "max_daily_visits": 19, "min_daily_visits": 5, "days_observed": 7}}, {"type": "Feature", "geometry": {"type": "Point", "coordinates": [-117.827061, 33.69499]}, "properties": {"placekey": "222-222@5z4-rtz-9mk", "brand": "In-N-Out Burger", "top_category": "Restaurants and Other Eating Places", "sub_category": "Limited-Service Restaurants", "street_address": "2895 Park Ave", "city": "Tustin", "region": "CA", "postal_code": "92782", "total_visits": 1366, "avg_daily_visits": 195.1, "max_daily_visits": 285, "min_daily_visits": 113, "days_observed": 7}}, {"type": "Feature", "geometry": {"type": "Point", "coordinates": [-118.643158, 34.185707]}, "properties": {"placekey": "zzw-225@5z4-zj8-ct9", "brand": "Taco Bell", "top_category": "Restaurants and Other Eating Places", "sub_category": "Limited-Service Restaurants", "street_address": "6303 Platt Ave", "city": "Woodland Hills", "region": "CA", "postal_code": "91367", "total_visits": 212, "avg_daily_visits": 30.3, "max_daily_visits": 45, "min_daily_visits": 17, "days_observed": 7}}, {"type": "Feature", "geometry": {"type": "Point", "coordinates": [-118.309495, 34.089053]}, "properties": {"placekey": "222-222@5z5-3r7-ch5", "brand": "Chick-fil-A", "top_category": "Restaurants and Other Eating Places", "sub_category": "Limited-Service Restaurants", "street_address": "1011 N Western Ave", "city": "Los Angeles", "region": "CA", "postal_code": "90029", "total_visits": 702, "avg_daily_visits": 100.3, "max_daily_visits": 126, "min_daily_visits": 80, "days_observed": 7}}, {"type": "Feature", "geometry": {"type": "Point", "coordinates": [-117.615697, 34.130921]}, "properties": {"placekey": "224-222@5z4-mvr-2kz", "brand": "Del Taco", "top_category": "Restaurants and Other Eating Places", "sub_category": "Limited-Service Restaurants", "street_address": "6799 Carnelian St", "city": "Rancho Cucamonga", "region": "CA", "postal_code": "91701", "total_visits": 384, "avg_daily_visits": 54.9, "max_daily_visits": 73, "min_daily_visits": 42, "days_observed": 7}}, {"type": "Feature", "geometry": {"type": "Point", "coordinates": [-118.16708, 33.812087]}, "properties": {"placekey": "zzw-225@5z6-3cd-zcq", "brand": "Jimmy John's", "top_category": "Restaurants and Other Eating Places", "sub_category": "Limited-Service Restaurants", "street_address": "2031 E Spring St", "city": "Long Beach", "region": "CA", "postal_code": "90806", "total_visits": 46, "avg_daily_visits": 6.6, "max_daily_visits": 14, "min_daily_visits": 2, "days_observed": 7}}, {"type": "Feature", "geometry": {"type": "Point", "coordinates": [-118.560893, 34.236981]}, "properties": {"placekey": "222-222@5z4-zk8-j9z", "brand": "Lowe's", "top_category": "Building Material and Supplies Dealers", "sub_category": "Hardware Stores", "street_address": "19601 Nordhoff St", "city": "Northridge", "region": "CA", "postal_code": "91324", "total_visits": 10, "avg_daily_visits": 2.0, "max_daily_visits": 3, "min_daily_visits": 1, "days_observed": 5}}, {"type": "Feature", "geometry": {"type": "Point", "coordinates": [-117.946929, 33.931497]}, "properties": {"placekey": "22d-222@5z4-rdx-hqz", "brand": "Domino's Pizza", "top_category": "Restaurants and Other Eating Places", "sub_category": "Limited-Service Restaurants", "street_address": "156 W La Habra Blvd", "city": "La Habra", "region": "CA", "postal_code": "90631", "total_visits": 141, "avg_daily_visits": 20.1, "max_daily_visits": 27, "min_daily_visits": 16, "days_observed": 7}}, {"type": "Feature", "geometry": {"type": "Point", "coordinates": [-119.248392, 34.2688]}, "properties": {"placekey": "22z-225@5xq-5q9-6ff", "brand": "Wetzel's Pretzels", "top_category": "Restaurants and Other Eating Places", "sub_category": "Limited-Service Restaurants", "street_address": "3301 E Main St Ste K206", "city": "Ventura", "region": "CA", "postal_code": "93003", "total_visits": 25, "avg_daily_visits": 3.6, "max_daily_visits": 7, "min_daily_visits": 1, "days_observed": 7}}, {"type": "Feature", "geometry": {"type": "Point", "coordinates": [-118.940621, 34.192573]}, "properties": {"placekey": "222-222@5z5-2n2-rzf", "brand": "Lowe's", "top_category": "Building Material and Supplies Dealers", "sub_category": "Hardware Stores", "street_address": "1027 Academy Dr", "city": "Thousand Oaks", "region": "CA", "postal_code": "91320", "total_visits": 1, "avg_daily_visits": 1.0, "max_daily_visits": 1, "min_daily_visits": 1, "days_observed": 1}}, {"type": "Feature", "geometry": {"type": "Point", "coordinates": [-118.258107, 34.136778]}, "properties": {"placekey": "zzw-224@5z5-3qg-6tv", "brand": "Domino's Pizza", "top_category": "Restaurants and Other Eating Places", "sub_category": "Limited-Service Restaurants", "street_address": "723 S Central Ave", "city": "Glendale", "region": "CA", "postal_code": "91204", "total_visits": 12, "avg_daily_visits": 2.0, "max_daily_visits": 3, "min_daily_visits": 1, "days_observed": 6}}, {"type": "Feature", "geometry": {"type": "Point", "coordinates": [-118.070271, 33.917365]}, "properties": {"placekey": "22c-222@5z6-3mk-m49", "brand": "The Buffalo Spot", "top_category": "Restaurants and Other Eating Places", "sub_category": "Limited-Service Restaurants", "street_address": "12303 Imperial Hwy", "city": "Norwalk", "region": "CA", "postal_code": "90650", "total_visits": 812, "avg_daily_visits": 116.0, "max_daily_visits": 138, "min_daily_visits": 83, "days_observed": 7}}, {"type": "Feature", "geometry": {"type": "Point", "coordinates": [-118.148718, 34.603165]}, "properties": {"placekey": "226-222@5z4-xc3-ygk", "brand": "It's Just Wings", "top_category": "Restaurants and Other Eating Places", "sub_category": "Limited-Service Restaurants", "street_address": "1021 W Rancho Vista Blvd", "city": "Palmdale", "region": "CA", "postal_code": "93551", "total_visits": 1469, "avg_daily_visits": 209.9, "max_daily_visits": 331, "min_daily_visits": 91, "days_observed": 7}}, {"type": "Feature", "geometry": {"type": "Point", "coordinates": [-117.820795, 33.740675]}, "properties": {"placekey": "zzw-222@5z4-rsm-45f", "brand": "The Honey Baked Ham Co.", "top_category": "Restaurants and Other Eating Places", "sub_category": "Limited-Service Restaurants", "street_address": "13771 Newport Ave Ste 13", "city": "Tustin", "region": "CA", "postal_code": "92780", "total_visits": 752, "avg_daily_visits": 107.4, "max_daily_visits": 147, "min_daily_visits": 49, "days_observed": 7}}, {"type": "Feature", "geometry": {"type": "Point", "coordinates": [-118.133685, 33.916831]}, "properties": {"placekey": "222-223@5z6-3kt-m49", "brand": "Carl's Jr.", "top_category": "Restaurants and Other Eating Places", "sub_category": "Limited-Service Restaurants", "street_address": "9110 Imperial Hwy", "city": "Downey", "region": "CA", "postal_code": "90242", "total_visits": 109, "avg_daily_visits": 15.6, "max_daily_visits": 22, "min_daily_visits": 10, "days_observed": 7}}, {"type": "Feature", "geometry": {"type": "Point", "coordinates": [-117.865553, 33.911433]}, "properties": {"placekey": "222-222@5z4-rhb-k75", "brand": "Arby's", "top_category": "Restaurants and Other Eating Places", "sub_category": "Limited-Service Restaurants", "street_address": "2525 E Imperial Hwy", "city": "Brea", "region": "CA", "postal_code": "92821", "total_visits": 230, "avg_daily_visits": 32.9, "max_daily_visits": 44, "min_daily_visits": 21, "days_observed": 7}}, {"type": "Feature", "geometry": {"type": "Point", "coordinates": [-117.88216, 33.667309]}, "properties": {"placekey": "222-222@5z6-2rz-r8v", "brand": "McDonald's", "top_category": "Restaurants and Other Eating Places", "sub_category": "Limited-Service Restaurants", "street_address": "290 Bristol St", "city": "Costa Mesa", "region": "CA", "postal_code": "92626", "total_visits": 835, "avg_daily_visits": 119.3, "max_daily_visits": 136, "min_daily_visits": 76, "days_observed": 7}}, {"type": "Feature", "geometry": {"type": "Point", "coordinates": [-118.267063, 34.159238]}, "properties": {"placekey": "22c-222@5z5-3qh-cbk", "brand": "Hungry Howie's Pizza & Subs", "top_category": "Restaurants and Other Eating Places", "sub_category": "Limited-Service Restaurants", "street_address": "600 W Glenoaks Blvd", "city": "Glendale", "region": "CA", "postal_code": "91202", "total_visits": 105, "avg_daily_visits": 15.0, "max_daily_visits": 22, "min_daily_visits": 10, "days_observed": 7}}, {"type": "Feature", "geometry": {"type": "Point", "coordinates": [-118.384322, 34.181341]}, "properties": {"placekey": "227-222@5z4-zd8-33q", "brand": "Yoshinoya", "top_category": "Restaurants and Other Eating Places", "sub_category": "Limited-Service Restaurants", "street_address": "6050 Lankershim Blvd", "city": "North Hollywood", "region": "CA", "postal_code": "91606", "total_visits": 388, "avg_daily_visits": 55.4, "max_daily_visits": 73, "min_daily_visits": 36, "days_observed": 7}}, {"type": "Feature", "geometry": {"type": "Point", "coordinates": [-117.102203, 33.483028]}, "properties": {"placekey": "zzw-222@5z4-sxj-249", "brand": "Little Caesars", "top_category": "Restaurants and Other Eating Places", "sub_category": "Limited-Service Restaurants", "street_address": "44060 Margarita Rd Ste 4", "city": "Temecula", "region": "CA", "postal_code": "92592", "total_visits": 539, "avg_daily_visits": 77.0, "max_daily_visits": 102, "min_daily_visits": 48, "days_observed": 7}}, {"type": "Feature", "geometry": {"type": "Point", "coordinates": [-118.260689, 34.237522]}, "properties": {"placekey": "22m-222@5z5-36h-rkz", "brand": "Jersey Mike's", "top_category": "Restaurants and Other Eating Places", "sub_category": "Limited-Service Restaurants", "street_address": "3731 Foothill Blvd Ste E", "city": "La Crescenta", "region": "CA", "postal_code": "91214", "total_visits": 302, "avg_daily_visits": 43.1, "max_daily_visits": 54, "min_daily_visits": 25, "days_observed": 7}}, {"type": "Feature", "geometry": {"type": "Point", "coordinates": [-118.431651, 34.258901]}, "properties": {"placekey": "226-222@5z4-zdk-k9f", "brand": "KFC", "top_category": "Restaurants and Other Eating Places", "sub_category": "Limited-Service Restaurants", "street_address": "13720 Van Nuys Blvd", "city": "Pacoima", "region": "CA", "postal_code": "91331", "total_visits": 114, "avg_daily_visits": 16.3, "max_daily_visits": 27, "min_daily_visits": 12, "days_observed": 7}}, {"type": "Feature", "geometry": {"type": "Point", "coordinates": [-117.871181, 33.787335]}, "properties": {"placekey": "zzw-226@5z4-rxd-ht9", "brand": "Zito's Pizza", "top_category": "Restaurants and Other Eating Places", "sub_category": "Limited-Service Restaurants", "street_address": "1716 W Chapman Ave", "city": "Orange", "region": "CA", "postal_code": "92868", "total_visits": 158, "avg_daily_visits": 22.6, "max_daily_visits": 30, "min_daily_visits": 9, "days_observed": 7}}, {"type": "Feature", "geometry": {"type": "Point", "coordinates": [-117.557121, 33.999419]}, "properties": {"placekey": "225-222@5z4-rkj-sbk", "brand": "Uncle Tetsu Cheesecakes", "top_category": "Restaurants and Other Eating Places", "sub_category": "Limited-Service Restaurants", "street_address": "4916 Hamner Ave Ste 110", "city": "Eastvale", "region": "CA", "postal_code": "91752", "total_visits": 2565, "avg_daily_visits": 366.4, "max_daily_visits": 566, "min_daily_visits": 194, "days_observed": 7}}, {"type": "Feature", "geometry": {"type": "Point", "coordinates": [-118.073667, 33.918732]}, "properties": {"placekey": "zzw-227@5z6-3mj-jqf", "brand": "Panda Express", "top_category": "Restaurants and Other Eating Places", "sub_category": "Limited-Service Restaurants", "street_address": "12327 Norwalk Blvd", "city": "Norwalk", "region": "CA", "postal_code": "90650", "total_visits": 951, "avg_daily_visits": 135.9, "max_daily_visits": 160, "min_daily_visits": 88, "days_observed": 7}}, {"type": "Feature", "geometry": {"type": "Point", "coordinates": [-118.778052, 34.273603]}, "properties": {"placekey": "225-222@5z5-2vw-mkz", "brand": "El Pollo Loco", "top_category": "Restaurants and Other Eating Places", "sub_category": "Limited-Service Restaurants", "street_address": "1111 E Los Angeles Ave", "city": "Simi Valley", "region": "CA", "postal_code": "93065", "total_visits": 1682, "avg_daily_visits": 240.3, "max_daily_visits": 285, "min_daily_visits": 153, "days_observed": 7}}, {"type": "Feature", "geometry": {"type": "Point", "coordinates": [-117.373468, 34.121794]}, "properties": {"placekey": "222-222@5z4-kkj-pjv", "brand": "Taco Bell", "top_category": "Restaurants and Other Eating Places", "sub_category": "Limited-Service Restaurants", "street_address": "240 W Base Line Rd", "city": "Rialto", "region": "CA", "postal_code": "92376", "total_visits": 1181, "avg_daily_visits": 168.7, "max_daily_visits": 197, "min_daily_visits": 115, "days_observed": 7}}, {"type": "Feature", "geometry": {"type": "Point", "coordinates": [-118.460963, 33.983134]}, "properties": {"placekey": "zzy-222@5z4-zwm-rkz", "brand": "Subway", "top_category": "Restaurants and Other Eating Places", "sub_category": "Limited-Service Restaurants", "street_address": "509 Washington Blvd", "city": "Venice", "region": "CA", "postal_code": "90292", "total_visits": 79, "avg_daily_visits": 11.3, "max_daily_visits": 16, "min_daily_visits": 6, "days_observed": 7}}, {"type": "Feature", "geometry": {"type": "Point", "coordinates": [-118.211467, 33.931321]}, "properties": {"placekey": "22f-222@5z6-3qt-q9f", "brand": "El Pollo Loco", "top_category": "Restaurants and Other Eating Places", "sub_category": "Limited-Service Restaurants", "street_address": "11118 Long Beach Blvd", "city": "Lynwood", "region": "CA", "postal_code": "90262", "total_visits": 223, "avg_daily_visits": 31.9, "max_daily_visits": 43, "min_daily_visits": 24, "days_observed": 7}}, {"type": "Feature", "geometry": {"type": "Point", "coordinates": [-117.553814, 34.048435]}, "properties": {"placekey": "zzw-222@5z4-rkh-66k", "brand": "Carl's Jr.", "top_category": "Restaurants and Other Eating Places", "sub_category": "Limited-Service Restaurants", "street_address": "4555 Jurupa St", "city": "Ontario", "region": "CA", "postal_code": "91761", "total_visits": 58, "avg_daily_visits": 8.3, "max_daily_visits": 12, "min_daily_visits": 4, "days_observed": 7}}, {"type": "Feature", "geometry": {"type": "Point", "coordinates": [-117.346312, 34.507005]}, "properties": {"placekey": "222-222@5z5-k9b-vmk", "brand": "McDonald's", "top_category": "Restaurants and Other Eating Places", "sub_category": "Limited-Service Restaurants", "street_address": "14526 Palmdale Rd", "city": "Victorville", "region": "CA", "postal_code": "92392", "total_visits": 1107, "avg_daily_visits": 158.1, "max_daily_visits": 212, "min_daily_visits": 87, "days_observed": 7}}, {"type": "Feature", "geometry": {"type": "Point", "coordinates": [-118.357337, 33.976615]}, "properties": {"placekey": "229-222@5z4-zxg-6x5", "brand": "Pizza Hut", "top_category": "Restaurants and Other Eating Places", "sub_category": "Limited-Service Restaurants", "street_address": "1000 N La Brea Ave", "city": "Inglewood", "region": "CA", "postal_code": "90302", "total_visits": 13, "avg_daily_visits": 1.9, "max_daily_visits": 3, "min_daily_visits": 1, "days_observed": 7}}, {"type": "Feature", "geometry": {"type": "Point", "coordinates": [-118.796532, 34.153698]}, "properties": {"placekey": "223-222@5z4-z7y-ndv", "brand": "Chipotle Mexican Grill", "top_category": "Restaurants and Other Eating Places", "sub_category": "Limited-Service Restaurants", "street_address": "5754 Lindero Canyon Rd", "city": "Westlake Village", "region": "CA", "postal_code": "91362", "total_visits": 806, "avg_daily_visits": 115.1, "max_daily_visits": 142, "min_daily_visits": 69, "days_observed": 7}}, {"type": "Feature", "geometry": {"type": "Point", "coordinates": [-117.835201, 33.806145]}, "properties": {"placekey": "224-222@5z4-rx8-nwk", "brand": "Arby's", "top_category": "Restaurants and Other Eating Places", "sub_category": "Limited-Service Restaurants", "street_address": "1107 N Tustin St", "city": "Orange", "region": "CA", "postal_code": "92867", "total_visits": 70, "avg_daily_visits": 10.0, "max_daily_visits": 19, "min_daily_visits": 6, "days_observed": 7}}, {"type": "Feature", "geometry": {"type": "Point", "coordinates": [-117.300185, 33.886495]}, "properties": {"placekey": "zzy-224@5z4-kgr-4d9", "brand": "WaBa Grill", "top_category": "Restaurants and Other Eating Places", "sub_category": "Limited-Service Restaurants", "street_address": "20641 Van Buren Blvd Ste 101", "city": "Riverside", "region": "CA", "postal_code": "92518", "total_visits": 163, "avg_daily_visits": 23.3, "max_daily_visits": 37, "min_daily_visits": 16, "days_observed": 7}}, {"type": "Feature", "geometry": {"type": "Point", "coordinates": [-118.866583, 34.27991]}, "properties": {"placekey": "zzy-222@5z5-2m8-f4v", "brand": "Panda Express", "top_category": "Restaurants and Other Eating Places", "sub_category": "Limited-Service Restaurants", "street_address": "840 W Los Angeles Ave", "city": "Moorpark", "region": "CA", "postal_code": "93021", "total_visits": 2162, "avg_daily_visits": 308.9, "max_daily_visits": 415, "min_daily_visits": 169, "days_observed": 7}}, {"type": "Feature", "geometry": {"type": "Point", "coordinates": [-117.489226, 34.071776]}, "properties": {"placekey": "224-222@5z4-kjw-6rk", "brand": "Del Taco", "top_category": "Restaurants and Other Eating Places", "sub_category": "Limited-Service Restaurants", "street_address": "10020 Cherry Ave", "city": "Fontana", "region": "CA", "postal_code": "92335", "total_visits": 322, "avg_daily_visits": 46.0, "max_daily_visits": 64, "min_daily_visits": 35, "days_observed": 7}}, {"type": "Feature", "geometry": {"type": "Point", "coordinates": [-118.291858, 34.011154]}, "properties": {"placekey": "224-222@5z5-3qv-yy9", "brand": "Carl's Jr.", "top_category": "Restaurants and Other Eating Places", "sub_category": "Limited-Service Restaurants", "street_address": "1001 W Martin Luther King Jr Blvd", "city": "Los Angeles", "region": "CA", "postal_code": "90037", "total_visits": 608, "avg_daily_visits": 86.9, "max_daily_visits": 109, "min_daily_visits": 50, "days_observed": 7}}, {"type": "Feature", "geometry": {"type": "Point", "coordinates": [-118.345331, 34.098219]}, "properties": {"placekey": "zzw-228@5z5-3r8-gc5", "brand": "Wendy's", "top_category": "Restaurants and Other Eating Places", "sub_category": "Limited-Service Restaurants", "street_address": "7135 W Sunset Blvd", "city": "Los Angeles", "region": "CA", "postal_code": "90046", "total_visits": 181, "avg_daily_visits": 25.9, "max_daily_visits": 34, "min_daily_visits": 19, "days_observed": 7}}, {"type": "Feature", "geometry": {"type": "Point", "coordinates": [-118.4754, 34.032734]}, "properties": {"placekey": "zzw-226@5z4-zvd-tn5", "brand": "Subway", "top_category": "Restaurants and Other Eating Places", "sub_category": "Limited-Service Restaurants", "street_address": "2461 Santa Monica Blvd Ste B", "city": "Santa Monica", "region": "CA", "postal_code": "90404", "total_visits": 416, "avg_daily_visits": 59.4, "max_daily_visits": 75, "min_daily_visits": 41, "days_observed": 7}}, {"type": "Feature", "geometry": {"type": "Point", "coordinates": [-117.348068, 33.973652]}, "properties": {"placekey": "22g-222@5z4-kgx-g8v", "brand": "Jack in the Box", "top_category": "Restaurants and Other Eating Places", "sub_category": "Limited-Service Restaurants", "street_address": "3886 Chicago Ave", "city": "Riverside", "region": "CA", "postal_code": "92507", "total_visits": 823, "avg_daily_visits": 117.6, "max_daily_visits": 147, "min_daily_visits": 88, "days_observed": 7}}, {"type": "Feature", "geometry": {"type": "Point", "coordinates": [-117.301495, 34.136258]}, "properties": {"placekey": "222-222@5z4-kv7-n89", "brand": "KFC", "top_category": "Restaurants and Other Eating Places", "sub_category": "Limited-Service Restaurants", "street_address": "808 W Highland Ave", "city": "San Bernardino", "region": "CA", "postal_code": "92405", "total_visits": 62, "avg_daily_visits": 8.9, "max_daily_visits": 14, "min_daily_visits": 4, "days_observed": 7}}, {"type": "Feature", "geometry": {"type": "Point", "coordinates": [-117.730423, 34.002807]}, "properties": {"placekey": "226-222@5z4-rr3-5s5", "brand": "It's Boba Time", "top_category": "Restaurants and Other Eating Places", "sub_category": "Limited-Service Restaurants", "street_address": "3410 Grand Ave Ste G", "city": "Chino Hills", "region": "CA", "postal_code": "91709", "total_visits": 438, "avg_daily_visits": 62.6, "max_daily_visits": 90, "min_daily_visits": 30, "days_observed": 7}}, {"type": "Feature", "geometry": {"type": "Point", "coordinates": [-117.976783, 33.845795]}, "properties": {"placekey": "zzw-226@5z4-rww-75z", "brand": "WaBa Grill", "top_category": "Restaurants and Other Eating Places", "sub_category": "Limited-Service Restaurants", "street_address": "1019E N Magnolia Ave Ste E", "city": "Anaheim", "region": "CA", "postal_code": "92801", "total_visits": 32, "avg_daily_visits": 4.6, "max_daily_visits": 9, "min_daily_visits": 1, "days_observed": 7}}, {"type": "Feature", "geometry": {"type": "Point", "coordinates": [-117.890586, 34.127507]}, "properties": {"placekey": "223-222@5z5-3sg-dd9", "brand": "Pizza Hut", "top_category": "Restaurants and Other Eating Places", "sub_category": "Limited-Service Restaurants", "street_address": "331 N Citrus Ave", "city": "Azusa", "region": "CA", "postal_code": "91702", "total_visits": 910, "avg_daily_visits": 130.0, "max_daily_visits": 178, "min_daily_visits": 74, "days_observed": 7}}, {"type": "Feature", "geometry": {"type": "Point", "coordinates": [-118.151624, 33.782798]}, "properties": {"placekey": "22h-222@5z6-3cm-tgk", "brand": "El Pollo Loco", "top_category": "Restaurants and Other Eating Places", "sub_category": "Limited-Service Restaurants", "street_address": "3425 E Anaheim St", "city": "Long Beach", "region": "CA", "postal_code": "90804", "total_visits": 261, "avg_daily_visits": 37.3, "max_daily_visits": 50, "min_daily_visits": 27, "days_observed": 7}}, {"type": "Feature", "geometry": {"type": "Point", "coordinates": [-118.208167, 34.056724]}, "properties": {"placekey": "224-222@5z5-3rh-mkz", "brand": "Popeyes Louisiana Kitchen", "top_category": "Restaurants and Other Eating Places", "sub_category": "Limited-Service Restaurants", "street_address": "2000 Marengo St", "city": "Los Angeles", "region": "CA", "postal_code": "90033", "total_visits": 151, "avg_daily_visits": 21.6, "max_daily_visits": 31, "min_daily_visits": 17, "days_observed": 7}}, {"type": "Feature", "geometry": {"type": "Point", "coordinates": [-118.091498, 33.862219]}, "properties": {"placekey": "zzw-222@5z6-3k8-rrk", "brand": "Chick-fil-A", "top_category": "Restaurants and Other Eating Places", "sub_category": "Limited-Service Restaurants", "street_address": "18605 Gridley Rd", "city": "Cerritos", "region": "CA", "postal_code": "90703", "total_visits": 291, "avg_daily_visits": 48.5, "max_daily_visits": 67, "min_daily_visits": 39, "days_observed": 6}}, {"type": "Feature", "geometry": {"type": "Point", "coordinates": [-117.965072, 34.084971]}, "properties": {"placekey": "zzw-222@5z5-3v7-fcq", "brand": "Burger King", "top_category": "Restaurants and Other Eating Places", "sub_category": "Limited-Service Restaurants", "street_address": "14130 Ramona Blvd", "city": "Baldwin Park", "region": "CA", "postal_code": "91706", "total_visits": 147, "avg_daily_visits": 21.0, "max_daily_visits": 30, "min_daily_visits": 11, "days_observed": 7}}, {"type": "Feature", "geometry": {"type": "Point", "coordinates": [-118.273456, 34.104448]}, "properties": {"placekey": "22d-222@5z5-3nx-s3q", "brand": "Do It Best", "top_category": "Building Material and Supplies Dealers", "sub_category": "Hardware Stores", "street_address": "2505 Hyperion Ave", "city": "Los Angeles", "region": "CA", "postal_code": "90027", "total_visits": 36, "avg_daily_visits": 5.1, "max_daily_visits": 6, "min_daily_visits": 4, "days_observed": 7}}, {"type": "Feature", "geometry": {"type": "Point", "coordinates": [-118.458813, 33.996673]}, "properties": {"placekey": "22m-222@5z4-zv3-2hq", "brand": "True Value Company", "top_category": "Building Material and Supplies Dealers", "sub_category": "Hardware Stores", "street_address": "1609 Lincoln Blvd", "city": "Venice", "region": "CA", "postal_code": "90291", "total_visits": 15, "avg_daily_visits": 2.5, "max_daily_visits": 4, "min_daily_visits": 1, "days_observed": 6}}, {"type": "Feature", "geometry": {"type": "Point", "coordinates": [-118.010802, 33.919093]}, "properties": {"placekey": "zzw-226@5z4-rgy-sh5", "brand": "Pizza Hut", "top_category": "Restaurants and Other Eating Places", "sub_category": "Limited-Service Restaurants", "street_address": "12218 La Mirada Blvd", "city": "La Mirada", "region": "CA", "postal_code": "90638", "total_visits": 388, "avg_daily_visits": 55.4, "max_daily_visits": 80, "min_daily_visits": 35, "days_observed": 7}}, {"type": "Feature", "geometry": {"type": "Point", "coordinates": [-117.922977, 33.643676]}, "properties": {"placekey": "223-222@5z6-2qj-gc5", "brand": "In-N-Out Burger", "top_category": "Restaurants and Other Eating Places", "sub_category": "Limited-Service Restaurants", "street_address": "594 W 19th St", "city": "Costa Mesa", "region": "CA", "postal_code": "92627", "total_visits": 360, "avg_daily_visits": 51.4, "max_daily_visits": 70, "min_daily_visits": 23, "days_observed": 7}}, {"type": "Feature", "geometry": {"type": "Point", "coordinates": [-118.154801, 33.789586]}, "properties": {"placekey": "22k-222@5z6-3n8-skf", "brand": "Del Taco", "top_category": "Restaurants and Other Eating Places", "sub_category": "Limited-Service Restaurants", "street_address": "3190 E Pacific Coast Hwy", "city": "Long Beach", "region": "CA", "postal_code": "90804", "total_visits": 95, "avg_daily_visits": 13.6, "max_daily_visits": 26, "min_daily_visits": 7, "days_observed": 7}}, {"type": "Feature", "geometry": {"type": "Point", "coordinates": [-117.220659, 34.472191]}, "properties": {"placekey": "zzw-222@5z4-pg5-rc5", "brand": "Tractor Supply Co.", "top_category": "Building Material and Supplies Dealers", "sub_category": "Hardware Stores", "street_address": "20340 Bear Valley Rd", "city": "Apple Valley", "region": "CA", "postal_code": "92308", "total_visits": 442, "avg_daily_visits": 63.1, "max_daily_visits": 95, "min_daily_visits": 28, "days_observed": 7}}, {"type": "Feature", "geometry": {"type": "Point", "coordinates": [-117.199713, 33.578275]}, "properties": {"placekey": "224-224@5z4-qnj-33q", "brand": "Domino's Pizza", "top_category": "Restaurants and Other Eating Places", "sub_category": "Limited-Service Restaurants", "street_address": "40404 California Oaks Rd", "city": "Murrieta", "region": "CA", "postal_code": "92562", "total_visits": 297, "avg_daily_visits": 42.4, "max_daily_visits": 62, "min_daily_visits": 21, "days_observed": 7}}, {"type": "Feature", "geometry": {"type": "Point", "coordinates": [-117.918415, 33.672297]}, "properties": {"placekey": "zzw-223@5z6-2rx-7wk", "brand": "Pizza Hut", "top_category": "Restaurants and Other Eating Places", "sub_category": "Limited-Service Restaurants", "street_address": "2750 Harbor Blvd Ste A14", "city": "Costa Mesa", "region": "CA", "postal_code": "92626", "total_visits": 392, "avg_daily_visits": 56.0, "max_daily_visits": 66, "min_daily_visits": 33, "days_observed": 7}}, {"type": "Feature", "geometry": {"type": "Point", "coordinates": [-117.312868, 34.10874]}, "properties": {"placekey": "22d-222@5z4-kv5-jjv", "brand": "Juan Pollo", "top_category": "Restaurants and Other Eating Places", "sub_category": "Limited-Service Restaurants", "street_address": "1258 W 5th St", "city": "San Bernardino", "region": "CA", "postal_code": "92411", "total_visits": 131, "avg_daily_visits": 18.7, "max_daily_visits": 22, "min_daily_visits": 14, "days_observed": 7}}, {"type": "Feature", "geometry": {"type": "Point", "coordinates": [-118.472546, 33.987305]}, "properties": {"placekey": "227-227@5z4-zwm-wc5", "brand": "Jeni's Splendid Ice Creams", "top_category": "Restaurants and Other Eating Places", "sub_category": "Limited-Service Restaurants", "street_address": "64 Windward Ave", "city": "Venice", "region": "CA", "postal_code": "90291", "total_visits": 136, "avg_daily_visits": 19.4, "max_daily_visits": 47, "min_daily_visits": 7, "days_observed": 7}}, {"type": "Feature", "geometry": {"type": "Point", "coordinates": [-117.853671, 33.789241]}, "properties": {"placekey": "22b-222@5z4-rx5-rff", "brand": "Zito's Pizza", "top_category": "Restaurants and Other Eating Places", "sub_category": "Limited-Service Restaurants", "street_address": "156 N Glassell St", "city": "Orange", "region": "CA", "postal_code": "92866", "total_visits": 433, "avg_daily_visits": 61.9, "max_daily_visits": 129, "min_daily_visits": 27, "days_observed": 7}}, {"type": "Feature", "geometry": {"type": "Point", "coordinates": [-117.723488, 33.628291]}, "properties": {"placekey": "zzw-222@5z6-2nd-snq", "brand": "Carl's Jr.", "top_category": "Restaurants and Other Eating Places", "sub_category": "Limited-Service Restaurants", "street_address": "23002 Lake Forest Dr", "city": "Laguna Hills", "region": "CA", "postal_code": "92653", "total_visits": 102, "avg_daily_visits": 14.6, "max_daily_visits": 18, "min_daily_visits": 9, "days_observed": 7}}, {"type": "Feature", "geometry": {"type": "Point", "coordinates": [-117.681215, 34.106489]}, "properties": {"placekey": "224-223@5z4-my4-789", "brand": "Green Burrito", "top_category": "Restaurants and Other Eating Places", "sub_category": "Limited-Service Restaurants", "street_address": "1610 W Foothill Blvd", "city": "Upland", "region": "CA", "postal_code": "91786", "total_visits": 242, "avg_daily_visits": 34.6, "max_daily_visits": 41, "min_daily_visits": 23, "days_observed": 7}}, {"type": "Feature", "geometry": {"type": "Point", "coordinates": [-117.885943, 33.670238]}, "properties": {"placekey": "224-223@5z6-2rz-mff", "brand": "Do It Best", "top_category": "Building Material and Supplies Dealers", "sub_category": "Hardware Stores", "street_address": "1100 Bristol St", "city": "Costa Mesa", "region": "CA", "postal_code": "92626", "total_visits": 26, "avg_daily_visits": 4.3, "max_daily_visits": 6, "min_daily_visits": 1, "days_observed": 6}}, {"type": "Feature", "geometry": {"type": "Point", "coordinates": [-117.463107, 33.976122]},